,西暦年度,ＲＬＳ識別コード,水系コード,絶対番号,地点新設等コード,県コード_地点統一番号,水域コード_地点統一番号,地点コード_地点統一番号,ＣＯＤ等基準点識別コード,水域名称_漢字,水域名称_カタカナ,水域名称_ローマ字,地点名称_漢字,地点名称_カタカナ,地点名称_ローマ字,類型,達成期間,指定区分,類型指定年_ＣＯＤ等,類型指定月_ＣＯＤ等,類型指定日_ＣＯＤ等,特例１,特例２,特例３,特例４,特例５,ＣＯＤの測定方法,県際水域コード,県際地点コード,測定中止年,測定中止月,測定中止日,測定再開年,測定再開月,測定再開日,ＮＰ測定コード,ＮＰ基準点識別コード,ＮＰ水域コード,ＮＰ水域名称_漢字,ＮＰ水域名称_カタカナ,ＮＰ水域名称_ローマ字,ＮＰ地点名称_漢字,ＮＰ地点名称_カタカナ,ＮＰ地点名称_ローマ字,ＮＰ類型,ＮＰ達成期間,ＮＰ指定区分,ＮＰ類型指定年,ＮＰ類型指定月,ＮＰ類型指定日,Ｎ指定の有無,Ｐ指定の有無,Ｎ暫定基準値,Ｐ暫定基準値,ＮＰ基準の特例,Ｎ測定方法,Ｐ測定方法,ＮＰ県際水域コード,ＮＰ県際地点コード,ＮＰ測定中止年,ＮＰ測定中止月,ＮＰ測定中止日,ＮＰ測定再開年,ＮＰ測定再開月,ＮＰ測定再開日,水道の取水地点,水質年鑑コード,推定絶対番号,推定水系コード,備考,緯度_Ｎ,経度_Ｅ,緯度_Ｎ_dms,経度_Ｅ_dms,地点統一番号
0,1983,1,81007.0,110010,2,1,1,1,1,石狩川上流（１）,イシカリカ゛ワ  シ゛ヨウリユウ  （１）,,留辺志部川合流前（日東つり橋）,ルヘ゛シヘ゛カ゛ワコ゛ウリユウマエ,,AA,1.0,1.0,1970.0,9.0,1.0,,,,,,,,,,,,,,,1.0,3.0,,石狩川上流（１）,イシカリカ゛ワ  シ゛ヨウリユウ  （１）,,,,,,,,,,,,,,,,1.0,1.0,,,,,,,,,,01R001,,,,43.83111111,142.79888889, 43:49:52,142:47:56,0100101
1,1983,1,81007.0,110020,2,1,2,52,2,石狩川上流（２）,イシカリカ゛ワ  シ゛ヨウリユウ  （２）,,東鷹栖浄水取水口,ヒカ゛シタカスシ゛ヨウスイ  シユスイクチ,,A,1.0,1.0,1970.0,9.0,1.0,,,,,,,,,,,,,,,1.0,3.0,,石狩川上流（２）,イシカリカ゛ワ  シ゛ヨウリユウ  （２）,,,,,,,,,,,,,,,,1.0,1.0,,,,,,,,,,01R002,,,,43.80527778,142.40222222, 43:48:19,142:24:08,0100252
2,1983,1,81007.0,110030,2,1,2,2,1,石狩川上流（２）,イシカリカ゛ワ  シ゛ヨウリユウ  （２）,,永山橋,ナカ゛ヤマハ゛シ,,A,1.0,1.0,1970.0,9.0,1.0,,,,,,,,,,,,,,,1.0,3.0,,石狩川上流（２）,イシカリカ゛ワ  シ゛ヨウリユウ  （２）,,,,,,,,,,,,,,,,1.0,1.0,,,,,,,,,,,,,,43.81750000,142.42666667, 43:49:03,142:25:36,0100202
3,1983,1,81007.0,110060,2,1,4,1,1,石狩川中流下流,イシカリカ゛ワ  チユウリユウ  カリユウ,,石狩大橋,イシカリオオハシ,,B,2.0,1.0,1970.0,9.0,1.0,,,,,,,,,,,,,,,1.0,3.0,,石狩川中流下流,イシカリカ゛ワ  チユウリユウ  カリユウ,,,,,,,,,,,,,,,,1.0,1.0,,,,,,,,,,01R005,,,,43.12388889,141.54250000, 43:07:26,141:32:33,0100401
4,1983,1,81007.0,110070,2,1,4,51,2,石狩川中流下流,イシカリカ゛ワ  チユウリユウ  カリユウ,,石狩河口橋,イシカリカコウハ゛シ,,B,2.0,1.0,1970.0,9.0,1.0,,,,,,,,,,,,,,,1.0,3.0,,石狩川中流下流,イシカリカ゛ワ  チユウリユウ  カリユウ,,,,,,,,,,,,,,,,1.0,1.0,,,,,,,,,,,,,,43.22888889,141.35194444, 43:13:44,141:21:07,0100451
5,1983,1,81007.0,110080,2,1,4,52,2,石狩川中流下流,イシカリカ゛ワ  チユウリユウ  カリユウ,,新石狩大橋,シンイシカリオオハシ,,B,2.0,1.0,1970.0,9.0,1.0,,,,,,,,,,,,,,,1.0,3.0,,石狩川中流下流,イシカリカ゛ワ  チユウリユウ  カリユウ,,,,,,,,,,,,,,,,1.0,1.0,,,,,,,,,,,,,,43.13666667,141.51138889, 43:08:12,141:30:41,0100452
6,1983,1,81007.0,110090,2,1,4,53,2,石狩川中流下流,イシカリカ゛ワ  チユウリユウ  カリユウ,,奈井江大橋,ナイエオオハシ,,B,2.0,1.0,1970.0,9.0,1.0,,,,,,,,,,,,,,,,,,,,,,,,,,,,,,,,,,,,,,,,,,,,,,,,,,43.42916667,141.84472222, 43:25:45,141:50:41,0100453
7,1983,1,81007.0,110100,2,1,4,54,2,石狩川中流下流,イシカリカ゛ワ  チユウリユウ  カリユウ,,石狩川橋,イシカリカ゛ワハ゛シ,,B,2.0,1.0,1970.0,9.0,1.0,,,,,,,,,,,,,,,1.0,3.0,,石狩川中流下流,イシカリカ゛ワ  チユウリユウ  カリユウ,,,,,,,,,,,,,,,,1.0,1.0,,,,,,,,,,,,,,43.56055556,141.88500000, 43:33:38,141:53:06,0100454
8,1983,1,81007.0,110110,2,1,4,55,2,石狩川中流下流,イシカリカ゛ワ  チユウリユウ  カリユウ,,岩見沢大橋,イワミサ゛ワオオハシ,,B,2.0,1.0,1970.0,9.0,1.0,,,,,,,,,,,,,,,1.0,3.0,,石狩川中流下流,イシカリカ゛ワ  チユウリユウ  カリユウ,,,,,,,,,,,,,,,,1.0,1.0,,,,,,,,,,,,,,43.05750000,141.66138889, 43:03:27,141:39:41,0100455
9,1983,1,81007.0,110130,2,1,5,52,2,石狩川上流（３）,イシカリカ゛ワ  シ゛ヨウリユウ  （３）,,旭川市上水東神楽浄水場取水口,ヒカ゛シカク゛ラシ゛ヨウスイシユスイクチ,,A,1.0,1.0,1970.0,9.0,1.0,,,,,,,,,,,,,,,1.0,3.0,,石狩川上流（３）,イシカリカ゛ワ  シ゛ヨウリユウ  （３）,,,,,,,,,,,,,,,,1.0,1.0,,,,,,,,,,01R582,,,,43.72972222,142.40666667, 43:43:47,142:24:24,0100552
10,1983,1,81007.0,110140,2,1,5,2,1,石狩川上流（３）,イシカリカ゛ワ  シ゛ヨウリユウ  （３）,,東神楽橋,ヒカ゛シカク゛ラハ゛シ,,A,1.0,1.0,1970.0,9.0,1.0,,,,,,,,,,,,,,,,,,,,,,,,,,,,,,,,,,,,,,,,,,,,,,,,,,43.70638889,142.45916667, 43:42:23,142:27:33,0100502
11,1983,1,81004.0,110160,2,1,6,2,1,常呂川上流,トコロカ゛ワ  シ゛ヨウリユウ,,金比羅橋（上常呂）,コンヒ゜ラハ゛シ  （  カミトコロ  ）,,A,1.0,1.0,1970.0,9.0,1.0,,,,,,,,,,,,,,,,,,,,,,,,,,,,,,,,,,,,,,,,,,,,,,,,,,43.75388889,143.83944444, 43:45:14,143:50:22,0100602
12,1983,1,81004.0,110170,2,1,7,1,1,常呂川下流,トコロカ゛ワ  カリユウ,,忠志橋,チユウシハ゛シ,,B,2.0,1.0,1970.0,9.0,1.0,,,,,,,,,,,,,,,,,,,,,,,,,,,,,,,,,,,,,,,,,,,,,,01R126,,,,43.92111111,143.96555556, 43:55:16,143:57:56,0100701
13,1983,1,81004.0,110180,2,1,7,51,2,常呂川下流,トコロカ゛ワ  カリユウ,,上川沿水位観測所（上川沿）,カミカワソ゛エ  スイイカンソクシヨ,,B,2.0,1.0,1970.0,9.0,1.0,,,,,,,,,,,,,,,,,,,,,,,,,,,,,,,,,,,,,,,,,,,,,,,,,,44.05222222,144.03277778, 44:03:08,144:01:58,0100751
14,1983,1,81004.0,110190,2,1,7,52,2,常呂川下流,トコロカ゛ワ  カリユウ,,若松橋（北見）,ワカマツハ゛シ  （  キタミ  ）,,B,2.0,1.0,1970.0,9.0,1.0,,,,,,,,,,,,,,,,,,,,,,,,,,,,,,,,,,,,,,,,,,,,,,,,,,43.79944444,143.91111111, 43:47:58,143:54:40,0100752
15,1983,1,81013.0,110220,2,1,8,52,2,十勝川上流,トカチカ゛ワ  シ゛ヨウリユウ,,上川橋,カミカワハ゛シ,,AA,1.0,1.0,1970.0,9.0,1.0,,,,,,,,,,,,,,,1.0,3.0,,十勝川上流,トカチカ゛ワ  シ゛ヨウリユウ,,,,,,,,,,,,,,,,1.0,1.0,,,,,,,,,,01R250,,,,43.03500000,142.93583333, 43:02:06,142:56:09,0100852
16,1983,1,81013.0,110230,2,1,8,2,1,十勝川上流,トカチカ゛ワ  シ゛ヨウリユウ,,新清橋,シンセイハ゛シ,,AA,1.0,1.0,1970.0,9.0,1.0,,,,,,,,,,,,,,,,,,,,,,,,,,,,,,,,,,,,,,,,,,,,,,,,,,43.09638889,142.91722222, 43:05:47,142:55:02,0100802
17,1983,1,81013.0,110240,2,1,9,1,1,十勝川中流,トカチカ゛ワ  チユウリユウ,,佐幌川合流前,サホロカ゛ワコ゛ウリユウマエ,,A,2.0,1.0,1970.0,9.0,1.0,,,,,,,,,,,,,,,1.0,3.0,,十勝川中流,トカチカ゛ワ  チユウリユウ,,,,,,,,,,,,,,,,1.0,1.0,,,,,,,,,,01R2501,,,,42.98444444,142.94805556, 42:59:04,142:56:53,0100901
18,1983,1,81013.0,110250,2,1,10,1,1,十勝川下流,トカチカ゛ワ  カリユウ,,茂岩橋（茂岩）,モイワハ゛シ  （  モイワ  ）,,B,2.0,1.0,1970.0,9.0,1.0,,,,,,,,,,,,,,,1.0,3.0,,十勝川下流,トカチカ゛ワ  カリユウ,,,,,,,,,,,,,,,,1.0,1.0,,,,,,,,,,01R2591,,,,42.80694444,143.51055556, 42:48:25,143:30:38,0101001
19,1983,1,81013.0,110260,2,1,10,2,1,十勝川下流,トカチカ゛ワ  カリユウ,,千代田堰堤,チヨタ゛エンテイ,,B,2.0,1.0,1970.0,9.0,1.0,,,,,,,,,,,,,,,1.0,3.0,,十勝川下流,トカチカ゛ワ  カリユウ,,,,,,,,,,,,,,,,1.0,1.0,,,,,,,,,,01R258,,,,42.94055556,143.33972222, 42:56:26,143:20:23,0101002
20,1983,1,81013.0,110270,2,1,10,3,1,十勝川下流,トカチカ゛ワ  カリユウ,,十勝大橋（帯広）,トカチオオハシ  （  オヒ゛ヒロ  ）,,B,2.0,1.0,1970.0,9.0,1.0,,,,,,,,,,,,,,,1.0,3.0,,十勝川下流,トカチカ゛ワ  カリユウ,,,,,,,,,,,,,,,,1.0,1.0,,,,,,,,,,01R252,,,,42.93527778,143.20222222, 42:56:07,143:12:08,0101003
21,1983,1,81013.0,110280,2,1,10,51,2,十勝川下流,トカチカ゛ワ  カリユウ,,祥栄橋（芽室太）,シヨウエイハ゛シ  （  メムロフ゛ト  ）,,B,2.0,1.0,1970.0,9.0,1.0,,,,,,,,,,,,,,,,,,,,,,,,,,,,,,,,,,,,,,,,,,,,,,,,,,42.92777778,143.04750000, 42:55:40,143:02:51,0101051
22,1983,1,81013.0,110290,2,1,10,52,2,十勝川下流,トカチカ゛ワ  カリユウ,,十勝橋,トカチハ゛シ,,B,2.0,1.0,1970.0,9.0,1.0,,,,,,,,,,,,,,,1.0,3.0,,十勝川下流,トカチカ゛ワ  カリユウ,,,,,,,,,,,,,,,,1.0,1.0,,,,,,,,,,,,,,42.95888889,142.96166667, 42:57:32,142:57:42,0101052
23,1983,1,81005.0,110310,2,1,11,1,1,網走川上流,アハ゛シリカ゛ワ  シ゛ヨウリユウ,,大正橋,タイシヨウハ゛シ,,A,1.0,1.0,1971.0,5.0,25.0,,,,,,,,,,,,,,,1.0,3.0,,網走川上流,アハ゛シリカ゛ワ  シ゛ヨウリユウ,,,,,,,,,,,,,,,,1.0,1.0,,,,,,,,,,01R132,,,,43.82527778,144.09111111, 43:49:31,144:05:28,0101101
24,1983,1,81005.0,110320,2,1,12,1,1,網走川中流,アハ゛シリカ゛ワ  チユウリユウ,,治水橋（本郷）,チスイハ゛シ  （  ホンコ゛ウ  ）,,B,2.0,1.0,1971.0,5.0,25.0,,,,,,,,,,,,,,,1.0,3.0,,網走川中流,アハ゛シリカ゛ワ  チユウリユウ,,,,,,,,,,,,,,,,1.0,1.0,,,,,,,,,,01R133,,,,43.90972222,144.13916667, 43:54:35,144:08:21,0101201
25,1983,1,81005.0,110330,2,1,13,1,1,網走川下流,アハ゛シリカ゛ワ  カリユウ,,網走橋,アハ゛シリハ゛シ,,B,2.0,1.0,1971.0,5.0,25.0,,,,,,,,,,,,,,,1.0,3.0,,網走川下流,アハ゛シリカ゛ワ  カリユウ,,,,,,,,,,,,,,,,1.0,1.0,,,,,,,,,,01R134,,,,44.02361111,144.26722222, 44:01:25,144:16:02,0101301
26,1983,1,81005.0,110340,2,1,14,1,1,美幌川上流,ヒ゛ホロカ゛ワ  シ゛ヨウリユウ,,都橋,ミヤコハ゛シ,,A,1.0,1.0,1971.0,5.0,25.0,,,,,,,,,,,,,,,1.0,3.0,,美幌川上流,ヒ゛ホロカ゛ワ  シ゛ヨウリユウ,,,,,,,,,,,,,,,,1.0,1.0,,,,,,,,,,01R131,,,,43.80277778,144.17027778, 43:48:10,144:10:13,0101401
27,1983,1,81005.0,110350,2,1,15,1,1,美幌川下流,ヒ゛ホロカ゛ワ  カリユウ,,美幌橋,ヒ゛ホロハ゛シ,,B,2.0,1.0,1971.0,5.0,25.0,,,,,,,,,,,,,,,1.0,3.0,,美幌川下流,ヒ゛ホロカ゛ワ  カリユウ,,,,,,,,,,,,,,,,1.0,1.0,,,,,,,,,,01R1311,,,,43.82861111,144.12277778, 43:49:43,144:07:22,0101501
28,1983,1,81006.0,110360,2,1,16,1,1,留萌川上流,ルモイカ゛ワ  シ゛ヨウリユウ,,橘橋（峠下）,タチハ゛ナハ゛シ  （  トウケ゛シタ  ）,,AA,1.0,3.0,1972.0,4.0,1.0,,,,,,,,,,,,,,,,,,,,,,,,,,,,,,,,,,,,,,,,,,,,,,01R703,,,,43.84888889,141.80555556, 43:50:56,141:48:20,0101601
29,1983,1,81006.0,110370,2,1,17,1,1,留萌川中流,ルモイカ゛ワ  チユウリユウ,,１６線橋,１６  センハ゛シ,,A,1.0,3.0,1972.0,4.0,1.0,,,,,,,,,,,,,,,,,,,,,,,,,,,,,,,,,,,,,,,,,,,,,,01R704,,,,43.88805556,141.71777778, 43:53:17,141:43:04,0101701
30,1983,1,81006.0,110380,2,1,18,1,1,留萌川下流,ルモイカ゛ワ  カリユウ,,留萌橋（河口）,ルモイハ゛シ  （  カコウ  ）,,B,1.0,3.0,1972.0,4.0,1.0,,,,,,,,,,,,,,,,,,,,,,,,,,,,,,,,,,,,,,,,,,,,,,01R701,,,,43.95333333,141.64388889, 43:57:12,141:38:38,0101801
31,1983,1,81006.0,110390,2,1,18,51,2,留萌川下流,ルモイカ゛ワ  カリユウ,,大和田水位観測所（大和田）,オオワタ゛  スイイカンソクシヨ,,B,1.0,3.0,1972.0,4.0,1.0,,,,,,,,,,,,,,,,,,,,,,,,,,,,,,,,,,,,,,,,,,,,,,,,,,43.90777778,141.70000000, 43:54:28,141:42:00,0101851
32,1983,1,81001.0,110400,2,1,19,1,1,天塩川上流,テシオカ゛ワ  シ゛ヨウリユウ,,朝日橋（奥士別）,アサヒハ゛シ  （  オクシヘ゛ツ  ）,,AA,1.0,3.0,1972.0,4.0,1.0,,,,,,,,,,,,,,,,,,,,,,,,,,,,,,,,,,,,,,,,,,,,,,01R0211,,,,44.10972222,142.59805556, 44:06:35,142:35:53,0101901
33,1983,1,81001.0,110410,2,1,20,1,1,天塩川中流,テシオカ゛ワ  チユウリユウ,,土別市上水東山浄水場取水口,ヒカ゛シヤマ  シ゛ヨウスイ  シユスイクチ,,A,1.0,3.0,1972.0,4.0,1.0,,,,,,,,,,,,,,,,,,,,,,,,,,,,,,,,,,,,,,,,,,,,,,01R021,,,,44.17833333,142.41472222, 44:10:42,142:24:53,0102001
34,1983,1,81001.0,110420,2,1,21,1,1,天塩川下流（１）,テシオカ゛ワ  カリユウ  （１）,,名寄市上水緑ヶ丘浄水場取水口,ミト゛リカ゛オカシ゛ヨウスイシユスイクチ,,A,1.0,3.0,1972.0,4.0,1.0,,,,,,,,,,,,,,,,,,,,,,,,,,,,,,,,,,,,,,,,,,,,,,01R027,,,,44.34027778,142.48777778, 44:20:25,142:29:16,0102101
35,1983,1,81001.0,110430,2,1,22,1,1,天塩川下流（２）,テシオカ゛ワ  カリユウ  （２）,,下中川捕獲場,シモナカカ゛ワホカクシ゛ヨウ,,A,1.0,3.0,1972.0,4.0,1.0,,,,,,,,,,,,,,,1.0,3.0,,天塩川下流（２）,テシオカ゛ワ  カリユウ  （２）,,,,,,,,,,,,,,,,1.0,1.0,,,,,,,,,,01R028,,,,44.84388889,142.07611111, 44:50:38,142:04:34,0102201
36,1983,1,81001.0,110440,2,1,23,1,1,天塩川下流（３）,テシオカ゛ワ  カリユウ  （３）,,１２線橋（犬牛別川合流前）,１２  センハ゛シ,,A,2.0,3.0,1972.0,4.0,1.0,3.0,,,,,,,,,,,,,,1.0,3.0,,天塩川下流（３）,テシオカ゛ワ  カリユウ  （３）,,,,,,,,,,,,,,,,1.0,1.0,,,,,,,,,,01R026,,,,44.14138889,142.39472222, 44:08:29,142:23:41,0102301
37,1983,1,81001.0,110450,2,1,24,1,1,天塩川下流（４）,テシオカ゛ワ  カリユウ  （４）,,中川捕獲場（佐久橋）,ナカカ゛ワ,,B,2.0,3.0,1972.0,4.0,1.0,3.0,,,,,,,,,,,,,,,,,,,,,,,,,,,,,,,,,,,,,,,,,,,,,01R025,,,,44.74361111,142.04444444, 44:44:37,142:02:40,0102401
38,1983,1,81001.0,110460,2,1,24,51,2,天塩川下流（４）,テシオカ゛ワ  カリユウ  （４）,,円山水位観測所（円山）,マルヤマ  スイイカンソクシヨ,,B,2.0,3.0,1972.0,4.0,1.0,3.0,,,,,,,,,,,,,,,,,,,,,,,,,,,,,,,,,,,,,,,,,,,,,,,,,44.92888889,141.87777778, 44:55:44,141:52:40,0102451
39,1983,1,81001.0,110470,2,1,24,52,2,天塩川下流（４）,テシオカ゛ワ  カリユウ  （４）,,美深橋,ヒ゛フカハ゛シ,,B,2.0,3.0,1972.0,4.0,1.0,3.0,,,,,,,,,,,,,,,,,,,,,,,,,,,,,,,,,,,,,,,,,,,,,,,,,44.48138889,142.33555556, 44:28:53,142:20:08,0102452
40,1983,1,81001.0,110490,2,1,24,54,2,天塩川下流（４）,テシオカ゛ワ  カリユウ  （４）,,名寄大橋,ナヨロオオハシ,,B,2.0,3.0,1972.0,4.0,1.0,3.0,,,,,,,,,,,,,,,,,,,,,,,,,,,,,,,,,,,,,,,,,,,,,,,,,44.36083333,142.44416667, 44:21:39,142:26:39,0102454
41,1983,1,81207.0,110500,2,1,25,1,1,興部川上流,オコツヘ゜カ゛ワ  シ゛ヨウリユウ,,七江橋（忍路子川合流前）,ナナエハ゛シ,,AA,1.0,3.0,1972.0,4.0,1.0,,,,,,,,,,,,,,,,,,,,,,,,,,,,,,,,,,,,,,,,,,,,,,01R071,,,,44.33250000,142.93111111, 44:19:57,142:55:52,0102501
42,1983,1,81207.0,110520,2,1,26,1,1,興部川中流,オコツヘ゜カ゛ワ  チユウリユウ,,興部町興部簡水取水口,オコツヘ゜カンスイ  シユスイクチ,,A,1.0,3.0,1972.0,4.0,1.0,,,,,,,,,,,,,,,,,,,,,,,,,,,,,,,,,,,,,,,,,,,,,,01R072,,,,44.46583333,143.10333333, 44:27:57,143:06:12,0102601
43,1983,1,81207.0,110530,2,1,27,1,1,興部川下流,オコツヘ゜カ゛ワ  カリユウ,,興部捕獲場,オコツヘ゜ホカクシ゛ヨウ,,B,1.0,3.0,1972.0,4.0,1.0,,,,,,,,,,,,,,,,,,,,,,,,,,,,,,,,,,,,,,,,,,,,,,01R073,,,,44.47527778,143.11694444, 44:28:31,143:07:01,0102701
44,1983,1,81209.0,110540,2,1,28,1,1,渚滑川上流,シヨコツカ゛ワ  シ゛ヨウリユウ,,滝ノ上橋,タキノウエハ゛シ,,AA,1.0,3.0,1972.0,4.0,1.0,,,,,,,,,,,,,,,,,,,,,,,,,,,,,,,,,,,,,,,,,,,,,,01R081,,,,44.18861111,143.32333333, 44:11:19,143:19:24,0102801
45,1983,1,81002.0,110550,2,1,29,1,1,渚滑川中流,シヨコツカ゛ワ  チユウリユウ,,花園浄水場取水口,ハナソ゛ノシ゛ヨウスイシ゛ヨウ,,A,1.0,3.0,1972.0,4.0,1.0,,,,,,,,,,,,,,,1.0,3.0,,渚滑川中流,シヨコツカ゛ワ  チユウリユウ,,,,,,,,,,,,,,,,1.0,1.0,,,,,,,,,,01R0801,,,,44.34888889,143.27277778, 44:20:56,143:16:22,0102901
46,1983,1,81002.0,110570,2,1,30,1,1,渚滑川下流,シヨコツカ゛ワ  カリユウ,,渚滑捕獲場,シヨコツホカクシ゛ヨウ,,B,1.0,3.0,1972.0,4.0,1.0,,,,,,,,,,,,,,,1.0,3.0,,渚滑川下流,シヨコツカ゛ワ  カリユウ,,,,,,,,,,,,,,,,1.0,1.0,,,,,,,,,,01R080,,,,44.38250000,143.31083333, 44:22:57,143:18:39,0103001
47,1983,1,81003.0,110580,2,1,31,1,1,湧別川上流,ユウヘ゛ツカ゛ワ  シ゛ヨウリユウ,,白滝橋（支湧別川合流前）,シラタキハ゛シ,,AA,1.0,3.0,1972.0,4.0,1.0,,,,,,,,,,,,,,,,,,,,,,,,,,,,,,,,,,,,,,,,,,,,,,01R101,,,,43.88250000,143.17555556, 43:52:57,143:10:32,0103101
48,1983,1,81003.0,110590,2,1,32,1,1,湧別川下流（１）,ユウヘ゛ツカ゛ワ  カリユウ  （１）,,丸瀬布町簡水予備取水口,マルセツフ゜カンスイヨヒ゛  シユスイクチ,,AA,1.0,3.0,1972.0,4.0,1.0,,,,,,,,,,,,,,,,,,,,,,,,,,,,,,,,,,,,,,,,,,,,,,01R102,,,,44.00166667,143.31972222, 44:00:06,143:19:11,0103201
49,1983,1,81003.0,110600,2,1,33,1,1,湧別川下流（２）,ユウヘ゛ツカ゛ワ  カリユウ  （２）,,中湧別橋,ナカユウヘ゛ツハ゛シ,,A,1.0,3.0,1972.0,4.0,1.0,,,,,,,,,,,,,,,,,,,,,,,,,,,,,,,,,,,,,,,,,,,,,,01R103,,,,44.20000000,143.59138889, 44:12:00,143:35:29,0103301
50,1983,1,81003.0,110610,2,1,33,51,2,湧別川下流（２）,ユウヘ゛ツカ゛ワ  カリユウ  （２）,,遠軽橋,エンカ゛ルハ゛シ,,A,1.0,3.0,1972.0,4.0,1.0,,,,,,,,,,,,,,,,,,,,,,,,,,,,,,,,,,,,,,,,,,,,,,,,,,44.05305556,143.51944444, 44:03:11,143:31:10,0103351
51,1983,1,81210.0,110620,2,1,34,1,1,佐呂間別川上流,サロマヘ゛ツカ゛ワ  シ゛ヨウリユウ,,敷島橋,シキシマハ゛シ,,AA,1.0,3.0,1972.0,4.0,1.0,,,,,,,,,,,,,,,,,,,,,,,,,,,,,,,,,,,,,,,,,,,,,,01R111,,,,43.96555556,143.67055556, 43:57:56,143:40:14,0103401
52,1983,1,81210.0,110630,2,1,35,1,1,佐呂間別川下流,サロマヘ゛ツカ゛ワ  カリユウ,,佐呂間大橋,サロマオオハシ,,A,1.0,3.0,1972.0,4.0,1.0,,,,,,,,,,,,,,,,,,,,,,,,,,,,,,,,,,,,,,,,,,,,,,01R112,,,,44.07972222,143.93666667, 44:04:47,143:56:12,0103501
53,1983,1,81504.0,110640,2,1,36,1,1,止別川上流,ヤンヘ゛ツカ゛ワ  シ゛ヨウリユウ,,水上橋,ミス゛カミハ゛シ,,AA,1.0,3.0,1972.0,4.0,1.0,,,,,,,,,,,,,,,,,,,,,,,,,,,,,,,,,,,,,,,,,,,,,,01R141,,,,43.79777778,144.49416667, 43:47:52,144:29:39,0103601
54,1983,1,81504.0,110650,2,1,37,1,1,止別川中流,ヤンヘ゛ツカ゛ワチユウリユウ,,パナクシュベツ川合流前（無名橋）,ハ゜ナクシユヘ゛ツカ゛ワコ゛ウリユウマエ,,A,1.0,3.0,1972.0,4.0,1.0,,,,,,,,,,,,,,,,,,,,,,,,,,,,,,,,,,,,,,,,,,,,,,01R142,,,,43.82083333,144.48333333, 43:49:15,144:29:00,0103701
55,1983,1,81504.0,110660,2,1,37,51,2,止別川中流,ヤンヘ゛ツカ゛ワ  チユウリユウ,,止別川合流前（無名橋）,ヤンヘ゛ツカ゛ワコ゛ウリユウマエ,,A,1.0,3.0,1972.0,4.0,1.0,,,,,,,,,,,,,,,,,,,,,,,,,,,,,,,,,,,,,,,,,,,,,,,,,,43.82277778,144.48166667, 43:49:22,144:28:54,0103751
56,1983,1,81504.0,110670,2,1,38,1,1,止別川下流,ヤンヘ゛ツカ゛ワ  カリユウ,,中島橋,ナカシ゛マハ゛シ,,B,2.0,3.0,1972.0,4.0,1.0,,,,,,,,,,,,,,,,,,,,,,,,,,,,,,,,,,,,,,,,,,,,,,01R143,,,,43.91250000,144.47333333, 43:54:45,144:28:24,0103801
57,1983,1,81211.0,110680,2,1,39,1,1,斜里川上流,シヤリカ゛ワ  シ゛ヨウリユウ,,長栄橋（札弦川合流前）,チヨウエイハ゛シ,,AA,1.0,3.0,1972.0,4.0,1.0,,,,,,,,,,,,,,,,,,,,,,,,,,,,,,,,,,,,,,,,,,,,,,01R151,,,,43.74500000,144.51888889, 43:44:42,144:31:08,0103901
58,1983,1,81211.0,110690,2,1,40,1,1,斜里川中流,シヤリカ゛ワ  チユウリユウ,,９線橋（ペーメン川合流前）,９  センハ゛シ,,A,1.0,3.0,1972.0,4.0,1.0,,,,,,,,,,,,,,,,,,,,,,,,,,,,,,,,,,,,,,,,,,,,,,01R152,,,,43.79638889,144.55166667, 43:47:47,144:33:06,0104001
59,1983,1,81211.0,110700,2,1,41,1,1,斜里川下流（１）,シヤリカ゛ワ  カリユウ  （１）,,エトンビ橋,エトンヒ゛ハ゛シ,,A,1.0,3.0,1972.0,4.0,1.0,,,,,,,,,,,,,,,,,,,,,,,,,,,,,,,,,,,,,,,,,,,,,,01R156,,,,43.82416667,144.59750000, 43:49:27,144:35:51,0104101
60,1983,1,81211.0,110710,2,1,42,1,1,斜里川下流（２）,シヤリカ゛ワ  カリユウ  （２）,,斜里捕獲場,シヤリホカクシ゛ヨウ,,B,1.0,3.0,1972.0,4.0,1.0,,,,,,,,,,,,,,,1.0,3.0,,斜里川下流（２）,シヤリカ゛ワ  カリユウ  （２）,,,,,,,,,,,,,,,,1.0,1.0,,,,,,,,,,01R155,,,,43.90972222,144.65305556, 43:54:35,144:39:11,0104201
61,1983,1,81211.0,110720,2,1,42,51,2,斜里川下流（２）,シヤリカ゛ワ  カリユウ  （２）,,斜里新大橋,シヤリシンオオハシ,,B,1.0,3.0,1972.0,4.0,1.0,,,,,,,,,,,,,,,,,,,,,,,,,,,,,,,,,,,,,,,,,,,,,,,,,,43.89972222,144.64111111, 43:53:59,144:38:28,0104251
62,1983,1,81211.0,110730,2,1,42,52,2,斜里川下流（２）,シヤリカ゛ワ  カリユウ  （２）,,川上橋,カワカミハ゛シ,,B,1.0,3.0,1972.0,4.0,1.0,,,,,,,,,,,,,,,,,,,,,,,,,,,,,,,,,,,,,,,,,,,,,,,,,,43.87027778,144.65000000, 43:52:13,144:39:00,0104252
63,1983,1,81241.0,110740,2,1,43,1,1,標津川上流,シヘ゛ツカ゛ワ  シ゛ヨウリユウ,,西竹橋（ケネカ川合流前）,ニシタケハ゛シ,,AA,1.0,3.0,1972.0,4.0,1.0,,,,,,,,,,,,,,,,,,,,,,,,,,,,,,,,,,,,,,,,,,,,,,01R171,,,,43.50750000,144.81638889, 43:30:27,144:48:59,0104301
64,1983,1,81241.0,110750,2,1,44,1,1,標津川中流,シヘ゛ツカ゛ワ  チユウリユウ,,南共栄橋（俣落川合流前）,ミナミキヨウエイハ゛シ,,A,1.0,3.0,1972.0,4.0,1.0,,,,,,,,,,,,,,,,,,,,,,,,,,,,,,,,,,,,,,,,,,,,,,01R172,,,,43.52138889,144.88472222, 43:31:17,144:53:05,0104401
65,1983,1,81241.0,110760,2,1,45,1,1,標津川下流（１）,シヘ゛ツカ゛ワ  カリユウ  （１）,,武佐川橋,ムサカ゛ワハ゛シ,,A,1.0,3.0,1972.0,4.0,1.0,,,,,,,,,,,,,,,,,,,,,,,,,,,,,,,,,,,,,,,,,,,,,,01R175,,,,43.60722222,144.98972222, 43:36:26,144:59:23,0104501
66,1983,1,81241.0,110770,2,1,46,1,1,標津川下流（２）,シヘ゛ツカ゛ワ  カリユウ  （２）,,標津捕獲場,シヘ゛ツホカクシ゛ヨウ,,B,1.0,3.0,1972.0,4.0,1.0,,,,,,,,,,,,,,,,,,,,,,,,,,,,,,,,,,,,,,,,,,,,,,01R174,,,,43.66138889,145.11305556, 43:39:41,145:06:47,0104601
67,1983,1,81012.0,110780,2,1,47,1,1,釧路川上流,クシロカ゛ワ  シ゛ヨウリユウ,,瀬文平橋（多和川合流前）,セモンヒ゛ラハ゛シ,,AA,1.0,3.0,1972.0,4.0,1.0,,,,,,,,,,,,,,,,,,,,,,,,,,,,,,,,,,,,,,,,,,,,,,01R191,,,,43.34861111,144.57916667, 43:20:55,144:34:45,0104701
68,1983,1,81012.0,110790,2,1,48,1,1,釧路川中流,クシロカ゛ワ  チユウリユウ,,釧路市上水愛国浄水場取水口,アイコクシ゛ヨウスイシ゛ヨウシユスイクチ,,A,1.0,3.0,1972.0,4.0,1.0,,,,,,,,,,,,,,,,,,,,,,,,,,,,,,,,,,,,,,,,,,,,,,01R192,,,,43.07250000,144.41111111, 43:04:21,144:24:40,0104801
69,1983,1,81012.0,110800,2,1,48,51,2,釧路川中流,クシロカ゛ワ  チユウリユウ,,開運橋,カイウンハ゛シ,,A,1.0,3.0,1972.0,4.0,1.0,,,,,,,,,,,,,,,,,,,,,,,,,,,,,,,,,,,,,,,,,,,,,,,,,,43.30027778,144.60222222, 43:18:01,144:36:08,0104851
70,1983,1,81012.0,110810,2,1,49,1,1,釧路川下流（１）,クシロカ゛ワ  カリユウ  （１）,,茂雪裡橋,モセツリハ゛シ,,AA,1.0,3.0,1972.0,4.0,1.0,,,,,,,,,,,,,,,,,,,,,,,,,,,,,,,,,,,,,,,,,,,,,,01R197,,,,43.23805556,144.31972222, 43:14:17,144:19:11,0104901
71,1983,1,81012.0,110820,2,1,50,1,1,釧路川下流（２）,クシロカ゛ワ  カリユウ  （２）,,新川橋,シンカワハ゛シ,,B,2.0,3.0,1972.0,4.0,1.0,,,,,,,,,,,,,,,,,,,,,,,,,,,,,,,,,,,,,,,,,,,,,,01R193,,,,42.99972222,144.35972222, 42:59:59,144:21:35,0105001
72,1983,1,81012.0,110840,2,1,51,1,1,釧路川下流（３）,クシロカ゛ワ  カリユウ  （３）,,弊舞橋,ヌサマエハ゛シ,,E,2.0,3.0,1972.0,4.0,1.0,,,,,,,,,,,,,,,,,,,,,,,,,,,,,,,,,,,,,,,,,,,,,,01R196,,,,42.98083333,144.38583333, 42:58:51,144:23:09,0105101
73,1983,1,81012.0,110850,2,1,51,51,2,釧路川下流（３）,クシロカ゛ワ  カリユウ  （３）,,雪裡橋,セツツリハ゛シ,,E,2.0,3.0,1972.0,4.0,1.0,,,,,,,,,,,,,,,,,,,,,,,,,,,,,,,,,,,,,,,,,,,,,,,,,,43.00361111,144.41833333, 43:00:13,144:25:06,0105151
74,1983,1,81234.0,110870,2,1,52,1,1,阿寒川上流,アカンカ゛ワ  シ゛ヨウリユウ,,阿寒川橋（飽別川合流前）,アカンカ゛ワハ゛シ,,AA,1.0,3.0,1972.0,4.0,1.0,,,,,,,,,,,,,,,,,,,,,,,,,,,,,,,,,,,,,,,,,,,,,,01R221,,,,43.28944444,144.09611111, 43:17:22,144:05:46,0105201
75,1983,1,81234.0,110880,2,1,53,1,1,阿寒川中流,アカンカ゛ワ  チユウリユウ,,丹頂橋（舌辛川合流前）,タンチヨウハ゛シ,,A,1.0,3.0,1972.0,4.0,1.0,,,,,,,,,,,,,,,,,,,,,,,,,,,,,,,,,,,,,,,,,,,,,,01R222,,,,43.11972222,144.13861111, 43:07:11,144:08:19,0105301
76,1983,1,81234.0,110890,2,1,54,1,1,阿寒川下流,アカンカ゛ワ  カリユウ,,大楽毛橋,オタノシケハ゛シ,,B,1.0,3.0,1972.0,4.0,1.0,,,,,,,,,,,,,,,,,,,,,,,,,,,,,,,,,,,,,,,,,,,,,,01R223,,,,43.01083333,144.26777778, 43:00:39,144:16:04,0105401
77,1983,1,81230.0,110900,2,1,55,1,1,浦幌川上流,ウラホロカ゛ワ  シ゛ヨウリユウ,,浦幌浄水場取水口,ウラホロシ゛ヨウスイシ゛ヨウシユスイクチ,,A,1.0,3.0,1972.0,4.0,1.0,,,,,,,,,,,,,,,,,,,,,,,,,,,,,,,,,,,,,,,,,,,,,,01R241,,,,42.83166667,143.66027778, 42:49:54,143:39:37,0105501
78,1983,1,81230.0,110910,2,1,56,1,1,浦幌川下流（１）,ウラホロカ゛ワ  カリユウ（１）,,浦幌町吉野簡水取水口,ウラホロチヨウヨシノカンスイシユスイクチ,,A,1.0,3.0,1972.0,4.0,1.0,,,,,,,,,,,,,,,,,,,,,,,,,,,,,,,,,,,,,,,,,,,,,,01R243,,,,42.89666667,143.60305556, 42:53:48,143:36:11,0105601
79,1983,1,81230.0,110920,2,1,57,1,1,浦幌川下流（２）,ウラホロカ゛ワ  カリユウ  （２）,,河口,カコウ,,B,2.0,3.0,1972.0,4.0,1.0,,,,,,,,,,,,,,,,,,,,,,,,,,,,,,,,,,,,,,,,,,,,,,01R244,,,,42.73166667,143.67388889, 42:43:54,143:40:26,0105701
80,1983,1,81011.0,110930,2,1,58,1,1,沙流川上流,サルカ゛ワ  シ゛ヨウリユウ,,千呂露橋（千栄）,チロロハ゛シ,,AA,1.0,3.0,1972.0,4.0,1.0,,,,,,,,,,,,,,,,,,,,,,,,,,,,,,,,,,,,,,,,,,,,,,01R801,,,,42.89194444,142.53527778, 42:53:31,142:32:07,0105801
81,1983,1,81011.0,110940,2,1,59,1,1,沙流川中流,サルカ゛ワ  チユウリユウ,,長知内橋,オサチナイハ゛シ,,A,1.0,3.0,1972.0,4.0,1.0,,,,,,,,,,,,,,,,,,,,,,,,,,,,,,,,,,,,,,,,,,,,,,01R802,,,,42.69138889,142.21472222, 42:41:29,142:12:53,0105901
82,1983,1,81011.0,110950,2,1,60,1,1,沙流川下流,サルカ゛ワ  カリユウ,,沙流川橋（富川）,サルカ゛ワハ゛シ,,B,1.0,3.0,1972.0,4.0,1.0,,,,,,,,,,,,,,,,,,,,,,,,,,,,,,,,,,,,,,,,,,,,,,01R804,,,,42.51666667,142.14194444, 42:31:00,142:08:31,0106001
83,1983,1,81011.0,110960,2,1,60,51,2,沙流川下流,サルカ゛ワ  カリユウ,,平取水位観測所（平取）,ヒ゛ラトリスイイカンソクシヨ,,B,1.0,3.0,1972.0,4.0,1.0,,,,,,,,,,,,,,,,,,,,,,,,,,,,,,,,,,,,,,,,,,,,,,,,,,42.58250000,142.03250000, 42:34:57,142:01:57,0106051
84,1983,1,81010.0,110970,2,1,61,1,1,鵡川上流,ムカワ  シ゛ヨウリユウ,,双珠別川合流前（青巌橋）,ソウシユヘ゛ツカ゛ワコ゛ウリユウマエ,,AA,1.0,3.0,1972.0,4.0,1.0,,,,,,,,,,,,,,,,,,,,,,,,,,,,,,,,,,,,,,,,,,,,,,01R851,,,,42.98055556,142.39055556, 42:58:50,142:23:26,0106101
85,1983,1,81010.0,110980,2,1,62,1,1,鵡川下流,ムカワ  カリユウ,,鵡川橋,ムカワハ゛シ,,A,2.0,3.0,1972.0,4.0,1.0,,,,,,,,,,,,,,,,,,,,,,,,,,,,,,,,,,,,,,,,,,,,,,01R852,,,,42.57472222,141.93638889, 42:34:29,141:56:11,0106201
86,1983,1,81520.0,110990,2,1,63,1,1,苫小牧幌内川上流,トマコマイホロナイカ゛ワシ゛ヨウリユウ,,苫小牧市上水幌内浄水場取水口,ホロナイシ゛ヨウスイシ゛ヨウシユスイクチ,,AA,1.0,3.0,1972.0,4.0,1.0,,,,,,,,,,,,,,,,,,,,,,,,,,,,,,,,,,,,,,,,,,,,,,01R291,,,,42.67916667,141.59138889, 42:40:45,141:35:29,0106301
87,1983,1,81520.0,111000,2,1,64,1,1,苫小牧幌内川下流,トマコマイホロナイカ゛ワ  カリユウ,,港橋,ミナトハ゛シ,,B,2.0,3.0,1972.0,4.0,1.0,,,,,,,,,,,,,,,1.0,3.0,,苫小牧幌内川下流,トマコマイホロナイカ゛ワ  カリユウ,,,,,,,,,,,,,,,,1.0,1.0,,,,,,,,,,01R295,,,,42.64277778,141.63361111, 42:38:34,141:38:01,0106401
88,1983,1,81520.0,111010,2,1,65,1,1,白老川上流,シラオイカ゛ワ  シ゛ヨウリユウ,,森野橋,モリノハ゛シ,,AA,1.0,3.0,1972.0,4.0,1.0,,,,,,,,,,,,,,,,,,,,,,,,,,,,,,,,,,,,,,,,,,,,,,01R321,,,,42.63722222,141.24250000, 42:38:14,141:14:33,0106501
89,1983,1,81520.0,111020,2,1,66,1,1,白老川下流,シラオイカ゛ワ  カリユウ,,白老橋,シラオイハ゛シ,,A,1.0,3.0,1972.0,4.0,1.0,,,,,,,,,,,,,,,,,,,,,,,,,,,,,,,,,,,,,,,,,,,,,,01R322,,,,42.54416667,141.34138889, 42:32:39,141:20:29,0106601
90,1983,1,81220.0,111030,2,1,67,1,1,長流川上流,オサルカ゛ワ  シ゛ヨウリユウ,,落合橋（三階滝川合流前）,オチアイハ゛シ,,AA,1.0,3.0,1972.0,4.0,1.0,,,,,,,,,,,,,,,,,,,,,,,,,,,,,,,,,,,,,,,,,,,,,,01R351,,,,42.67694444,141.08916667, 42:40:37,141:05:21,0106701
91,1983,1,81220.0,111040,2,1,68,1,1,長流川中流,オサルカ゛ワ  チユウリユウ,,弁景川合流前,ヘ゛ンケイカ゛ワコ゛ウリユウマエ,,A,2.0,3.0,1972.0,4.0,1.0,4.0,,,,,,,,,,,,,,,,,,,,,,,,,,,,,,,,,,,,,,,,,,,,,01R352,,,,42.57750000,140.99583333, 42:34:39,140:59:45,0106801
92,1983,1,81220.0,111050,2,1,68,51,2,長流川中流,オサルカ゛ワ  チユウリユウ,,弁景橋,ヘ゛ンケイハ゛シ,,A,2.0,3.0,1972.0,4.0,1.0,4.0,,,,,,,,,,,,,,,,,,,,,,,,,,,,,,,,,,,,,,,,,,,,,,,,,42.57305556,140.99527778, 42:34:23,140:59:43,0106851
93,1983,1,81220.0,111060,2,1,69,1,1,長流川下流,オサルカ゛ワ  カリユウ,,長流橋,オサルハ゛シ,,B,2.0,3.0,1972.0,4.0,1.0,4.0,,,,,,,,,,,,,,,,,,,,,,,,,,,,,,,,,,,,,,,,,,,,,01R353,,,,42.48472222,140.84305556, 42:29:05,140:50:35,0106901
94,1983,1,81220.0,111070,2,1,69,51,2,長流川下流,オサルカ゛ワ  カリユウ,,洞爺発電所取水口,トウヤハツテ゛ンシヨシユスイク゛チ,,B,2.0,3.0,1972.0,4.0,1.0,4.0,,,,,,,,,,,,,,,,,,,,,,,,,,,,,,,,,,,,,,,,,,,,,,,,,42.57638889,140.96583333, 42:34:35,140:57:57,0106951
95,1983,1,81219.0,111080,2,1,70,1,1,貫気別川中流,ヌツキヘ゛ツカ゛ワ  シ゛ヨウリユウ,,富岡橋（ハザワ川合流前）,トミオカハ゛シ,,AA,1.0,3.0,1972.0,4.0,1.0,,,,,,,,,,,,,,,,,,,,,,,,,,,,,,,,,,,,,,,,,,,,,,01R381,,,,42.69361111,140.87527778, 42:41:37,140:52:31,0107001
96,1983,1,81219.0,111090,2,1,71,1,1,貫気別川中流,ヌツキヘ゛ツカ゛ワ  チユウリユウ,,寿橋,コトフ゛キハ゛シ,,A,2.0,3.0,1972.0,4.0,1.0,,,,,,,,,,,,,,,,,,,,,,,,,,,,,,,,,,,,,,,,,,,,,,01R383,,,,42.63250000,140.72416667, 42:37:57,140:43:27,0107101
97,1983,1,81219.0,111100,2,1,71,51,2,貫気別川中流,ヌツキヘ゛ツカ゛ワ  チユウリユウ,,土場橋,ト゛ハ゛ハ゛シ,,A,2.0,3.0,1972.0,4.0,1.0,,,,,,,,,,,,,,,,,,,,,,,,,,,,,,,,,,,,,,,,,,,,,,,,,,42.66111111,140.75944444, 42:39:40,140:45:34,0107151
98,1983,1,81219.0,111110,2,1,71,52,2,貫気別川中流,ヌツキヘ゛ツカ゛ワ  チユウリユウ,,二股橋（壮滝別川）,フタマタハ゛シ,,A,2.0,3.0,1972.0,4.0,1.0,,,,,,,,,,,,,,,,,,,,,,,,,,,,,,,,,,,,,,,,,,,,,,,,,,42.63750000,140.69805556, 42:38:15,140:41:53,0107152
99,1983,1,81219.0,111120,2,1,72,1,1,貫気別川下流,ヌツキヘ゛ツカ゛ワ  カリユウ,,岩見橋,イワミハ゛シ,,B,2.0,3.0,1972.0,4.0,1.0,,,,,,,,,,,,,,,,,,,,,,,,,,,,,,,,,,,,,,,,,,,,,,01R384,,,,42.59916667,140.70305556, 42:35:57,140:42:11,0107201
100,1983,1,81516.0,111130,2,1,73,1,1,松倉川上流,マツクラカ゛ワ  シ゛ヨウリユウ,,三森橋（寅沢川合流前）,ミツモリハ゛シ,,AA,1.0,3.0,1972.0,4.0,1.0,,,,,,,,,,,,,,,1.0,3.0,,松倉川上流,マツクラカ゛ワ  シ゛ヨウリユウ,,,,,,,,,,,,,,,,1.0,1.0,,,,,,,,,,01R421,,,,41.85694444,140.86194444, 41:51:25,140:51:43,0107301
101,1983,1,81516.0,111140,2,1,73,51,2,松倉川上流,マツクラカ゛ワ  シ゛ヨウリユウ,,松倉川合流前,マツクラカ゛ワコ゛ウリユウマエ,,AA,1.0,3.0,1972.0,4.0,1.0,,,,,,,,,,,,,,,1.0,3.0,,松倉川上流,マツクラカ゛ワ  シ゛ヨウリユウ,,,,,,,,,,,,,,,,1.0,1.0,,,,,,,,,,,,,,41.85638889,140.85972222, 41:51:23,140:51:35,0107351
102,1983,1,81516.0,111160,2,1,74,1,1,松倉川中流,マツクラカ゛ワ  チユウリユウ,,下鱒川合流前,シモマスカ゛ワコ゛ウリユウマエ,,A,1.0,3.0,1972.0,4.0,1.0,,,,,,,,,,,,,,,1.0,3.0,,松倉川中流,マツクラカ゛ワ  チユウリユウ,,,,,,,,,,,,,,,,1.0,1.0,,,,,,,,,,01R422,,,,41.82277778,140.84694444, 41:49:22,140:50:49,0107401
103,1983,1,81516.0,111170,2,1,75,1,1,松倉川下流,マツクラカ゛ワ  カリユウ,,河口,カコウ,,B,2.0,3.0,1972.0,4.0,1.0,,,,,,,,,,,,,,,1.0,3.0,,松倉川下流,マツクラカ゛ワ  カリユウ,,,,,,,,,,,,,,,,1.0,1.0,,,,,,,,,,01R424,,,,41.77361111,140.78694444, 41:46:25,140:47:13,0107501
104,1983,1,81516.0,111190,2,1,75,52,2,松倉川下流,マツクラカ゛ワ  カリユウ,,松倉橋,マツクラハ゛シ,,B,2.0,3.0,1972.0,4.0,1.0,,,,,,,,,,,,,,,1.0,3.0,,松倉川下流,マツクラカ゛ワ  カリユウ,,,,,,,,,,,,,,,,1.0,1.0,,,,,,,,,,,,,,41.77638889,140.79305556, 41:46:35,140:47:35,0107552
105,1983,1,81516.0,111200,2,1,75,53,2,松倉川下流,マツクラカ゛ワ  カリユウ,,松聖橋,シヨウセイハ゛シ,,B,2.0,3.0,1972.0,4.0,1.0,,,,,,,,,,,,,,,1.0,3.0,,松倉川下流,マツクラカ゛ワ  カリユウ,,,,,,,,,,,,,,,,1.0,1.0,,,,,,,,,,,,,,41.78472222,140.80916667, 41:47:05,140:48:33,0107553
106,1983,1,81009.0,111250,2,1,76,1,1,後志利別川上流,シリヘ゛シトシヘ゛ツカ゛ワシ゛ヨウリユウ,,住吉水位観測所（住吉）,スミヨシスイイカンソクシヨ,,AA,1.0,3.0,1972.0,4.0,1.0,,,,,,,,,,,,,,,,,,,,,,,,,,,,,,,,,,,,,,,,,,,,,,01R901,,,,42.41083333,140.10500000, 42:24:39,140:06:18,0107601
107,1983,1,81009.0,111260,2,1,77,1,1,後志利別川中流,シリヘ゛シトシヘ゛ツカ゛ワ  チユウリユウ,,今金橋（今金）,イマカ゛ネハ゛シ,,A,1.0,3.0,1972.0,4.0,1.0,,,,,,,,,,,,,,,,,,,,,,,,,,,,,,,,,,,,,,,,,,,,,,01R902,,,,42.42250000,140.00916667, 42:25:21,140:00:33,0107701
108,1983,1,81009.0,111270,2,1,78,1,1,後志利別川下流（１）,シリヘ゛シトシヘ゛ツカ゛ワカリユウ（１）,,北檜山町北檜山簡水取水口,キタヒヤマカンスイシユスイクチ,,AA,1.0,3.0,1972.0,4.0,1.0,,,,,,,,,,,,,,,,,,,,,,,,,,,,,,,,,,,,,,,,,,,,,,01R911,,,,42.43583333,139.89472222, 42:26:09,139:53:41,0107801
109,1983,1,81009.0,111280,2,1,79,1,1,後志利別川下流（２）,シリヘ゛シトシヘ゛ツカ゛ワカリユウ（２）,,兜野橋（利別河口）,カフ゛トノハ゛シ,,B,1.0,3.0,1972.0,4.0,1.0,,,,,,,,,,,,,,,,,,,,,,,,,,,,,,,,,,,,,,,,,,,,,,01R903,,,,42.41472222,139.85972222, 42:24:53,139:51:35,0107901
110,1983,1,81008.0,111290,2,1,80,1,1,尻別川上流,シリヘ゛ツカ゛ワ  シ゛ヨウリユウ,,相川橋（喜茂別）,アイカワハ゛シ,,AA,1.0,3.0,1972.0,4.0,1.0,,,,,,,,,,,,,,,,,,,,,,,,,,,,,,,,,,,,,,,,,,,,,,01R461,,,,42.79055556,140.93305556, 42:47:26,140:55:59,0108001
111,1983,1,81008.0,111300,2,1,81,1,1,尻別川中流,シリヘ゛ツカ゛ワ  チユウリユウ,,目名橋,メナハ゛シ,,A,1.0,3.0,1972.0,4.0,1.0,,,,,,,,,,,,,,,,,,,,,,,,,,,,,,,,,,,,,,,,,,,,,,01R462,,,,42.86055556,140.87472222, 42:51:38,140:52:29,0108101
112,1983,1,81008.0,111310,2,1,82,1,1,尻別川下流（１）,シリヘ゛ツカ゛ワ  カリユウ  （１）,,名駒捕獲場,ナコマホカクシ゛ヨウ,,A,1.0,3.0,1972.0,4.0,1.0,,,,,,,,,,,,,,,,,,,,,,,,,,,,,,,,,,,,,,,,,,,,,,01R465,,,,42.81361111,140.44861111, 42:48:49,140:26:55,0108201
113,1983,1,81008.0,111320,2,1,83,1,1,尻別川下流（２）,シリヘ゛ツカ゛ワ  カリユウ  （２）,,名駒水位観測所（名駒）,ナコマスイイカンソクシヨ,,B,2.0,3.0,1972.0,4.0,1.0,,,,,,,,,,,,,,,1.0,3.0,,尻別川下流（２）,シリヘ゛ツカ゛ワ  カリユウ  （２）,,,,,,,,,,,,,,,,1.0,1.0,,,,,,,,,,01R467,,,,42.81138889,140.46638889, 42:48:41,140:27:59,0108301
114,1983,1,81008.0,111330,2,1,83,51,2,尻別川下流（２）,シリヘ゛ツカ゛ワ  カリユウ  （２）,,芙蓉橋,フヨウハ゛シ,,B,2.0,3.0,1972.0,4.0,1.0,,,,,,,,,,,,,,,,,,,,,,,,,,,,,,,,,,,,,,,,,,,,,,,,,,42.80972222,140.68194444, 42:48:35,140:40:55,0108351
115,1983,1,81008.0,111340,2,1,84,1,1,尻別川下流（３）,シリヘ゛ツカ゛ワ  カリユウ  （３）,,真狩橋,マツカリハ゛シ,,C,2.0,3.0,1972.0,4.0,1.0,,,,,,,,,,,,,,,,,,,,,,,,,,,,,,,,,,,,,,,,,,,,,,01R464,,,,42.79361111,140.69305556, 42:47:37,140:41:35,0108401
116,1983,1,81203.0,111350,2,1,85,1,1,頓別川上流,トンヘ゛ツカ゛ワ  シ゛ヨウリユウ,,開明橋,カイメイハ゛シ,,AA,1.0,3.0,1973.0,3.0,15.0,,,,,,,,,,,,,,,,,,,,,,,,,,,,,,,,,,,,,,,,,,,,,,01R041,,,,44.87361111,142.22111111, 44:52:25,142:13:16,0108501
117,1983,1,81203.0,111370,2,1,86,1,1,頓別川中流,トンヘ゛ツカ゛ワ  チユウリユウ,,上駒橋,カミコマハ゛シ,,A,1.0,3.0,1973.0,3.0,15.0,,,,,,,,,,,,,,,,,,,,,,,,,,,,,,,,,,,,,,,,,,,,,,01R042,,,,44.96222222,142.27111111, 44:57:44,142:16:16,0108601
118,1983,1,81203.0,111380,2,1,87,1,1,頓別川下流（１）,トンヘ゛ツカ゛ワ  カリユウ  （１）,,中頓別町本町簡水取水口,ナカトンヘ゛ツ  カンスイ  シユスイクチ,,AA,1.0,3.0,1973.0,3.0,15.0,,,,,,,,,,,,,,,,,,,,,,,,,,,,,,,,,,,,,,,,,,,,,,01R044,,,,44.98472222,142.32166667, 44:59:05,142:19:18,0108701
119,1983,1,81203.0,111400,2,1,88,1,1,頓別川下流（２）,トンヘ゛ツカ゛ワ  カリユウ  （２）,,浜頓別町下頓別簡水取水口,シモトンヘ゛ツカンスイシユスイクチ,,AA,1.0,3.0,1973.0,3.0,15.0,,,,,,,,,,,,,,,,,,,,,,,,,,,,,,,,,,,,,,,,,,,,,,01R045,,,,45.02388889,142.34222222, 45:01:26,142:20:32,0108801
120,1983,1,81203.0,111410,2,1,89,1,1,頓別川下流（３）,トンヘ゛ツカ゛ワ  カリユウ  （３）,,豊寒別浄水場右の沢取水口,トヨカンヘ゛ツ  シ゛ヨウスイシユスイクチ,,AA,1.0,3.0,1973.0,3.0,15.0,,,,,,,,,,,,,,,,,,,,,,,,,,,,,,,,,,,,,,,,,,,,,,01R046,,,,45.06194444,142.43694444, 45:03:43,142:26:13,0108901
121,1983,1,81203.0,111420,2,1,90,1,1,頓別川下流（４）,トンヘ゛ツカ゛ワ  カリユウ  （４）,,浜頓別橋,ハマトンヘ゛ツハ゛シ,,B,1.0,3.0,1973.0,3.0,15.0,,,,,,,,,,,,,,,,,,,,,,,,,,,,,,,,,,,,,,,,,,,,,,01R043,,,,45.12666667,142.38500000, 45:07:36,142:23:06,0109001
122,1983,1,81204.0,111430,2,1,91,1,1,北見幌別川上流,キタミホロヘ゛ツカ゛ワ  シ゛ヨウリユウ,,やよい橋,ヤヨイハ゛シ,,A,1.0,3.0,1973.0,3.0,15.0,,,,,,,,,,,,,,,,,,,,,,,,,,,,,,,,,,,,,,,,,,,,,,01R051,,,,44.83416667,142.45750000, 44:50:03,142:27:27,0109101
123,1983,1,81204.0,111440,2,1,92,1,1,北見幌別川下流（１）,キタミホロヘ゛ツカ゛ワ  カリユウ  （１）,,歌登町市街簡水取水口,ウタノホ゛リシカ゛イカンスイシユスイクチ,,A,1.0,3.0,1973.0,3.0,15.0,,,,,,,,,,,,,,,,,,,,,,,,,,,,,,,,,,,,,,,,,,,,,,01R053,,,,44.89916667,142.46444444, 44:53:57,142:27:52,0109201
124,1983,1,81204.0,111450,2,1,93,1,1,北見幌別川下流（２）,キタミホロヘ゛ツカ゛ワ  カリユウ  （２）,,岡島専水取水口,オカシ゛マセンスイシユスイク゛チ,,AA,1.0,3.0,1973.0,3.0,15.0,,,,,,,,,,,,,,,,,,,,,,,,,,,,,,,,,,,,,,,,,,,,,,01R054,,,,44.85583333,142.59000000, 44:51:21,142:35:24,0109301
125,1983,1,81204.0,111460,2,1,94,1,1,北見幌別川下流（３）,キタミホロヘ゛ツカ゛ワ  カリユウ  （３）,,下幌別橋,シモホロヘ゛ツハ゛シ,,B,1.0,3.0,1973.0,3.0,15.0,,,,,,,,,,,,,,,,,,,,,,,,,,,,,,,,,,,,,,,,,,,,,,01R052,,,,44.87861111,142.57055556, 44:52:43,142:34:14,0109401
126,1983,1,81205.0,111480,2,1,95,1,1,徳志別川上流,トクシヘ゛ツカ゛ワ  シ゛ヨウリユウ,,日の出橋,ヒノテ゛ハ゛シ,,AA,1.0,3.0,1973.0,3.0,15.0,,,,,,,,,,,,,,,,,,,,,,,,,,,,,,,,,,,,,,,,,,,,,,01R061,,,,44.68694444,142.59027778, 44:41:13,142:35:25,0109501
127,1983,1,81205.0,111490,2,1,96,1,1,徳志別川下流（１）,トクシヘ゛ツカ゛ワ  カリユウ  （１）,,歌登町志美字丹簡水取水口,シヒ゛ウタンカンスイ  シユスイクチ,,AA,1.0,3.0,1973.0,3.0,15.0,,,,,,,,,,,,,,,,,,,,,,,,,,,,,,,,,,,,,,,,,,,,,,01R063,,,,44.78555556,142.57972222, 44:47:08,142:34:47,0109601
128,1983,1,81205.0,111500,2,1,97,1,1,徳志別川下流（２）,トクシヘ゛ツカ゛ワ  カリユウ  （２）,,徳志別捕獲場,トクシヘ゛ツホカクシ゛ヨウ,,A,1.0,3.0,1973.0,3.0,15.0,,,,,,,,,,,,,,,,,,,,,,,,,,,,,,,,,,,,,,,,,,,,,,01R062,,,,44.83833333,142.65222222, 44:50:18,142:39:08,0109701
129,1983,1,81237.0,111510,2,1,98,1,1,西別川上流,ニシヘ゛ツカ゛ワ  シ゛ヨウリユウ,,長栄橋,チヨウエイハ゛シ,,AA,1.0,3.0,1973.0,3.0,15.0,,,,,,,,,,,,,,,,,,,,,,,,,,,,,,,,,,,,,,,,,,,,,,01R181,,,,43.37194444,144.98250000, 43:22:19,144:58:57,0109801
130,1983,1,81237.0,111520,2,1,99,1,1,西別川下流,ニシヘ゛ツカ゛ワ  カリユウ,,別海橋,ヘ゛ツカイハ゛シ,,A,1.0,3.0,1973.0,3.0,15.0,,,,,,,,,,,,,,,,,,,,,,,,,,,,,,,,,,,,,,,,,,,,,,01R182,,,,43.37972222,145.28472222, 43:22:47,145:17:05,0109901
131,1983,1,81237.0,111530,2,1,99,51,2,西別川下流,ニシヘ゛ツカ゛ワ  カリユウ,,西別川橋,ニシヘ゛ツカ゛ワハ゛シ,,A,1.0,3.0,1973.0,3.0,15.0,,,,,,,,,,,,,,,,,,,,,,,,,,,,,,,,,,,,,,,,,,,,,,,,,,43.39027778,145.12638889, 43:23:25,145:07:35,0109951
132,1983,1,81229.0,111540,2,1,101,1,1,歴舟川上流,レキフネカ゛ワ  シ゛ヨウリユウ,,尾田橋,オタ゛ハ゛シ,,AA,1.0,3.0,1973.0,3.0,15.0,,,,,,,,,,,,,,,,,,,,,,,,,,,,,,,,,,,,,,,,,,,,,,01R271,,,,42.52666667,143.18722222, 42:31:36,143:11:14,0110101
133,1983,1,81229.0,111550,2,1,102,1,1,歴舟川下流,レキフネカ゛ワ  カリユウ,,歴舟大橋,レキフネオオハシ,,A,1.0,3.0,1973.0,3.0,15.0,,,,,,,,,,,,,,,,,,,,,,,,,,,,,,,,,,,,,,,,,,,,,,01R273,,,,42.46250000,143.36194444, 42:27:45,143:21:43,0110201
134,1983,1,81229.0,111560,2,1,102,51,2,歴舟川下流,レキフネカ゛ワ  カリユウ,,大樹橋,タイキハ゛シ,,A,1.0,3.0,1973.0,3.0,15.0,,,,,,,,,,,,,,,,,,,,,,,,,,,,,,,,,,,,,,,,,,,,,,,,,,42.49361111,143.27500000, 42:29:37,143:16:30,0110251
135,1983,1,81524.0,111570,2,1,103,1,1,広尾川上流（１）,ヒロオカ゛ワ  シ゛ヨウリユウ  （１）,,広尾町上水丸山浄水場取水口,マルヤマシ゛ヨウスイシ゛ヨウシユスイクチ,,AA,1.0,3.0,1973.0,3.0,15.0,,,,,,,,,,,,,,,,,,,,,,,,,,,,,,,,,,,,,,,,,,,,,,01R281,,,,42.28500000,143.26222222, 42:17:06,143:15:44,0110301
136,1983,1,81524.0,111580,2,1,104,1,1,広尾川上流（２）,ヒロオカ゛ワ  シ゛ヨウリユウ  （２）,,中広尾橋,ナカヒロオハ゛シ,,A,1.0,3.0,1973.0,3.0,15.0,,,,,,,,,,,,,,,,,,,,,,,,,,,,,,,,,,,,,,,,,,,,,,01R283,,,,42.28027778,143.31444444, 42:16:49,143:18:52,0110401
137,1983,1,81524.0,111590,2,1,105,1,1,広尾川中流,ヒロオカ゛ワ  チユウリユウ,,西広尾橋,ニシヒロオハ゛シ,,A,1.0,3.0,1973.0,3.0,15.0,,,,,,,,,,,,,,,,,,,,,,,,,,,,,,,,,,,,,,,,,,,,,,01R282,,,,42.28611111,143.29944444, 42:17:10,143:17:58,0110501
138,1983,1,81524.0,111600,2,1,106,1,1,広尾川下流,ヒロオカ゛ワ  カリユウ,,広尾橋,ヒロオハ゛シ,,B,1.0,3.0,1973.0,3.0,15.0,,,,,,,,,,,,,,,,,,,,,,,,,,,,,,,,,,,,,,,,,,,,,,01R284,,,,42.28055556,143.31666667, 42:16:50,143:19:00,0110601
139,1983,1,81520.0,111610,2,1,107,1,1,苫小牧川上流,トマコマイカ゛ワ  シ゛ヨウリユウ,,王子専水取水口,オウシ゛センスイシユスイク゛チ,,AA,1.0,3.0,1973.0,3.0,15.0,,,,,,,,,,,,,,,,,,,,,,,,,,,,,,,,,,,,,,,,,,,,,,01R301,,,,42.67416667,141.55916667, 42:40:27,141:33:33,0110701
140,1983,1,81520.0,111620,2,1,108,1,1,苫小牧川中流,トマコマイカ゛ワ  チユウリユウ,,ワッカナイ橋,ワツカナイハ゛シ,,A,1.0,3.0,1973.0,3.0,15.0,,,,,,,,,,,,,,,,,,,,,,,,,,,,,,,,,,,,,,,,,,,,,,01R302,,,,42.66527778,141.56250000, 42:39:55,141:33:45,0110801
141,1983,1,,111630,2,1,109,1,1,苫小牧川下流,トマコマイカ゛ワ  カリユウ,,磯香橋,イソカハ゛シ,,E,3.0,3.0,1973.0,3.0,15.0,,,,,,,,,,,,,,,1.0,3.0,,苫小牧川下流,トマコマイカ゛ワ  カリユウ,,,,,,,,,,,,,,,,1.0,1.0,,,,,,,,,,01R306,,,,42.62694444,141.59722222, 42:37:37,141:35:50,0110901
142,1983,1,81518.0,111640,2,1,110,1,1,遊楽部川上流,ユウラツフ゜カ゛ワ  シ゛ヨウリユウ,,セイヨウベツ橋（上八雲）,セイヨウヘ゛ツハ゛シ,,AA,1.0,3.0,1973.0,3.0,15.0,,,,,,,,,,,,,,,,,,,,,,,,,,,,,,,,,,,,,,,,,,,,,,01R401,,,,42.29416667,140.14194444, 42:17:39,140:08:31,0111001
143,1983,1,81518.0,111650,2,1,111,1,1,遊楽部川中流（１）,ユウラツフ゜カ゛ワ  チユウリユウ  （１）,,八雲町上水大新浄水場取水口,タ゛イシン  シ゛ヨウスイ  シユスイクチ,,AA,1.0,3.0,1973.0,3.0,15.0,,,,,,,,,,,,,,,,,,,,,,,,,,,,,,,,,,,,,,,,,,,,,,01R405,,,,42.19750000,140.23305556, 42:11:51,140:13:59,0111101
144,1983,1,81518.0,111660,2,1,112,1,1,遊楽部川中流（２）,ユウラツフ゜カ゛ワ  チユウリユウ  （２）,,建岩橋,タテイワハ゛シ,,A,1.0,3.0,1973.0,3.0,15.0,,,,,,,,,,,,,,,,,,,,,,,,,,,,,,,,,,,,,,,,,,,,,,01R402,,,,42.26638889,140.21083333, 42:15:59,140:12:39,0111201
145,1983,1,81518.0,111670,2,1,113,1,1,遊楽部川下流,ユウラツフ゜カ゛ワ  カリユウ,,遊楽部捕獲場,ユウラツフ゜ホカクシ゛ヨウ,,B,1.0,3.0,1973.0,3.0,15.0,,,,,,,,,,,,,,,,,,,,,,,,,,,,,,,,,,,,,,,,,,,,,,01R403,,,,42.26027778,140.26305556, 42:15:37,140:15:47,0111301
146,1983,1,81216.0,111680,2,1,114,1,1,余市川上流,ヨイチカ゛ワ  シ゛ヨウリユウ,,金橋,キンハ゛シ,,AA,1.0,3.0,1973.0,3.0,15.0,,,,,,,,,,,,,,,,,,,,,,,,,,,,,,,,,,,,,,,,,,,,,,01R491,,,,43.04972222,140.84416667, 43:02:59,140:50:39,0111401
147,1983,1,81216.0,111690,2,1,115,1,1,余市川中流（１）,ヨイチカ゛ワ  チユウリユウ  （１）,,二木町銀山簡水取水口,キ゛ンサ゛ン  カンスイ  シユスイクチ,,AA,1.0,3.0,1973.0,3.0,15.0,,,,,,,,,,,,,,,,,,,,,,,,,,,,,,,,,,,,,,,,,,,,,,01R494,,,,43.05638889,140.70027778, 43:03:23,140:42:01,0111501
148,1983,1,81216.0,111700,2,1,116,1,1,余市川中流（２）,ヨイチカ゛ワ  チユウリユウ  （２）,,大江専水取水口,オオエセンスイシユスイク゛チ,,AA,1.0,3.0,1973.0,3.0,15.0,,,,,,,,,,,,,,,,,,,,,,,,,,,,,,,,,,,,,,,,,,,,,,01R495,,,,43.11083333,140.70138889, 43:06:39,140:42:05,0111601
149,1983,1,81216.0,111710,2,1,117,1,1,余市川中流（３）,ヨイチカ゛ワ  チユウリユウ  （３）,,余市町上水余市川浄水場取水口,ヨイチカ゛ワ  シ゛ヨウスイ  シユスイクチ,,A,1.0,3.0,1973.0,3.0,15.0,,,,,,,,,,,,,,,,,,,,,,,,,,,,,,,,,,,,,,,,,,,,,,01R492,,,,43.16638889,140.76861111, 43:09:59,140:46:07,0111701
150,1983,1,81216.0,111720,2,1,118,1,1,余市川下流（１）,ヨイチカ゛ワ  カリユウ  （１）,,仁木町仁木簡水取水口,ニキチヨウ  ニキ  カンスイ  シユスイクチ,,AA,1.0,3.0,1973.0,3.0,15.0,,,,,,,,,,,,,,,,,,,,,,,,,,,,,,,,,,,,,,,,,,,,,,01R496,,,,43.12638889,140.76444444, 43:07:35,140:45:52,0111801
151,1983,1,81216.0,111730,2,1,119,1,1,余市川下流（２）,ヨイチカ゛ワ  カリユウ  （２）,,大川橋,オオカワハ゛シ,,B,1.0,3.0,1973.0,3.0,15.0,,,,,,,,,,,,,,,,,,,,,,,,,,,,,,,,,,,,,,,,,,,,,,01R493,,,,43.19361111,140.78750000, 43:11:37,140:47:15,0111901
152,1983,1,81007.0,111740,2,1,120,1,1,新川上流,シンカワ  シ゛ヨウリユウ,,札幌市上水西野浄水場取水口,ニシノシ゛ヨウスイシ゛ヨウシユスイクチ,,A,1.0,3.0,1973.0,3.0,15.0,,,,,,,,,,,,,,,1.0,3.0,,新川上流,シンカワ  シ゛ヨウリユウ,,,,,,,,,,,,,,,,1.0,1.0,,,,,,,,,,01R603,,,,43.06861111,141.28111111, 43:04:07,141:16:52,0112001
153,1983,1,81007.0,111750,2,1,121,1,1,新川下流,シンカワ  カリユウ,,第一新川橋,タ゛イ  １  シンカワハ゛シ,,E,3.0,3.0,1973.0,3.0,15.0,,,,,,,,,,,,,,,1.0,3.0,,新川下流,シンカワ  カリユウ,,,,,,,,,,,,,,,,1.0,1.0,,,,,,,,,,01R604,,,,43.15138889,141.23750000, 43:09:05,141:14:15,0112101
154,1983,1,81007.0,111780,2,1,121,53,2,新川下流,シンカワ  カリユウ,,八軒橋,ハチケンハ゛シ,,E,3.0,3.0,1973.0,3.0,15.0,,,,,,,,,,,,,,,1.0,3.0,,新川下流,シンカワ  カリユウ,,,,,,,,,,,,,,,,1.0,1.0,,,,,,,,,,,,,,43.09694444,141.29861111, 43:05:49,141:17:55,0112153
155,1983,1,81007.0,111790,2,1,122,1,1,石狩川上流（４）,イシカリカ゛ワ  シ゛ヨウリユウ  （４）,,納内橋,オサムナイハ゛シ,,B,2.0,3.0,1974.0,5.0,14.0,,,,,,,,,,,,,,,1.0,3.0,,石狩川上流（４）,イシカリカ゛ワ  シ゛ヨウリユウ  （４）,,,,,,,,,,,,,,,,1.0,1.0,,,,,,,,,,01R003,,,,43.71750000,142.13444444, 43:43:03,142:08:04,0112201
156,1983,1,81007.0,111810,2,1,122,52,2,石狩川上流（４）,イシカリカ゛ワ  シ゛ヨウリユウ  （４）,,神龍頭首工（伊納）,シンリユウ  トウシユコウ  （  イノウ  ）,,B,2.0,3.0,1974.0,5.0,14.0,,,,,,,,,,,,,,,1.0,3.0,,石狩川上流（４）,イシカリカ゛ワ  シ゛ヨウリユウ  （４）,,,,,,,,,,,,,,,,1.0,1.0,,,,,,,,,,,,,,43.73527778,142.23500000, 43:44:07,142:14:06,0112252
157,1983,1,81007.0,111820,2,1,122,53,2,石狩川上流（４）,イシカリカ゛ワ  シ゛ヨウリユウ  （４）,,旭川大橋,アサヒカワオオハシ,,B,2.0,3.0,1974.0,5.0,14.0,,,,,,,,,,,,,,,,,,,,,,,,,,,,,,,,,,,,,,,,,,,,,,,,,,43.77138889,142.33444444, 43:46:17,142:20:04,0112253
158,1983,1,81007.0,111830,4,1,122,54,2,石狩川上流（４）,イシカリカ゛ワ  シ゛ヨウリユウ  （４）,,緑橋,ミト゛リハ゛シ,,B,2.0,3.0,1974.0,5.0,14.0,,,,,,,,,,,,1983.0,4.0,1.0,,,,,,,,,,,,,,,,,,,,,,,,,,,,,,,,,,,,43.77833333,142.34972222, 43:46:42,142:20:59,0112254
159,1983,1,81007.0,111840,2,1,123,1,1,留辺志部川,ルヘ゛シヘ゛カ゛ワ,,留辺志部橋,ルヘ゛シヘ゛ハ゛シ,,AA,1.0,3.0,1974.0,5.0,14.0,,,,,,,,,,,,,,,1.0,3.0,,留辺志部川,ルヘ゛シヘ゛カ゛ワ,,,,,,,,,,,,,,,,1.0,1.0,,,,,,,,,,01R692,,,,43.84194444,142.78250000, 43:50:31,142:46:57,0112301
160,1983,1,81007.0,111850,2,1,124,1,1,安足間川,アンタロマカ゛ワ,,安足間橋,アンタロマハ゛シ,,AA,1.0,3.0,1974.0,5.0,14.0,,,,,,,,,,,,,,,1.0,3.0,,安足間川,アンタロマカ゛ワ,,,,,,,,,,,,,,,,1.0,1.0,,,,,,,,,,01R691,,,,43.84166667,142.95555556, 43:50:30,142:57:20,0112401
161,1983,1,81007.0,111860,2,1,125,1,1,愛別川,アイヘ゛ツカ゛ワ,,金富橋,カナトミハ゛シ,,A,1.0,3.0,1974.0,5.0,14.0,,,,,,,,,,,,,,,1.0,3.0,,愛別川,アイヘ゛ツカ゛ワ,,,,,,,,,,,,,,,,1.0,1.0,,,,,,,,,,01R681,,,,43.89972222,142.78722222, 43:53:59,142:47:14,0112501
162,1983,1,81007.0,111870,2,1,126,1,1,牛朱別川,ウシユヘ゛ツカ゛ワ,,功橋,イサオハ゛シ,,A,1.0,3.0,1974.0,5.0,14.0,,,,,,,,,,,,,,,1.0,3.0,,牛朱別川,ウシユヘ゛ツカ゛ワ,,,,,,,,,,,,,,,,1.0,1.0,,,,,,,,,,01R672,,,,43.77916667,142.42583333, 43:46:45,142:25:33,0112601
163,1983,1,81007.0,111880,2,1,127,1,1,オサラッペ川,オサラツヘ゜カ゛ワ,,治水橋,チスイハ゛シ,,A,1.0,3.0,1974.0,5.0,14.0,,,,,,,,,,,,,,,,,,,,,,,,,,,,,,,,,,,,,,,,,,,,,,01R571,,,,43.86083333,142.33833333, 43:51:39,142:20:18,0112701
164,1983,1,81007.0,111890,2,1,128,1,1,江丹別川,エタンヘ゛ツカ゛ワ,,永見橋,ナカ゛ミハ゛シ,,A,1.0,3.0,1974.0,5.0,14.0,,,,,,,,,,,,,,,1.0,3.0,,江丹別川,エタンヘ゛ツカ゛ワ,,,,,,,,,,,,,,,,1.0,1.0,,,,,,,,,,01R561,,,,43.81000000,142.27888889, 43:48:36,142:16:44,0112801
165,1983,1,81007.0,111900,2,1,129,1,1,雨竜川上流,ウリユウカ゛ワ  シ゛ヨウリユウ,,龍水橋,リユウスイハ゛シ,,A,1.0,3.0,1974.0,5.0,14.0,,,,,,,,,,,,,,,,,,,,,,,,,,,,,,,,,,,,,,,,,,,,,,01R552,,,,43.80916667,142.01472222, 43:48:33,142:00:53,0112901
166,1983,1,81007.0,111910,2,1,130,1,1,雨竜川下流,ウリユウカ゛ワ  カリユウ,,雨竜橋,ウリユウハ゛シ,,B,1.0,3.0,1974.0,5.0,14.0,,,,,,,,,,,,,,,1.0,3.0,,,ウリユウカ゛ワ  カリユウ,,,,,,,,,,,,,,,,1.0,1.0,,,,,,,,,,01R551,,,,43.68166667,141.90000000, 43:40:54,141:54:00,0113001
167,1983,1,81007.0,111920,2,1,131,1,1,尾白利加川,オシラリカカ゛ワ,,尾白利加橋,オシラリカハ゛シ,,A,1.0,3.0,1974.0,5.0,14.0,,,,,,,,,,,,,,,,,,,,,,,,,,,,,,,,,,,,,,,,,,,,,,01R541,,,,43.60972222,141.89500000, 43:36:35,141:53:42,0113101
168,1983,1,81007.0,111930,2,1,132,1,1,徳富川,トツフ゜カ゛ワ,,徳富橋,トツフ゜ハ゛シ,,A,1.0,3.0,1974.0,5.0,14.0,,,,,,,,,,,,,,,,,,,,,,,,,,,,,,,,,,,,,,,,,,,,,,01R531,,,,43.55027778,141.88805556, 43:33:01,141:53:17,0113201
169,1983,1,81007.0,111940,2,1,133,1,1,空知川上流,ソラチカ゛ワ  シ゛ヨウリユウ,,下金山橋,シモカナヤマハ゛シ,,AA,1.0,3.0,1974.0,5.0,14.0,,,,,,,,,,,,,,,1.0,3.0,,空知川上流,ソラチカ゛ワ  シ゛ヨウリユウ,,,,,,,,,,,,,,,,1.0,1.0,,,,,,,,,,01R0084,,,,43.20583333,142.41416667, 43:12:21,142:24:51,0113301
170,1983,1,81007.0,111950,2,1,134,1,1,空知川中流,ソラチカ゛ワ  チユウリユウ,,たいざん橋,タイサ゛ンハ゛シ,,A,1.0,3.0,1974.0,5.0,14.0,,,,,,,,,,,,,,,,,,,,,,,,,,,,,,,,,,,,,,,,,,,,,,01R0082,,,,43.49194444,142.21611111, 43:29:31,142:12:58,0113401
171,1983,1,81007.0,111970,2,1,135,1,1,空知川下流,ソラチカ゛ワ  カリユウ,,空知大橋,ソラチオオハシ,,B,1.0,3.0,1974.0,5.0,14.0,,,,,,,,,,,,,,,1.0,3.0,,空知川下流,ソラチカ゛ワ  カリユウ,,,,,,,,,,,,,,,,1.0,1.0,,,,,,,,,,01R008,,,,43.54805556,141.91500000, 43:32:53,141:54:54,0113501
172,1983,1,81007.0,111980,2,1,135,51,2,空知川下流,ソラチカ゛ワ  カリユウ,,赤平橋,アカヒ゛ラハ゛シ,,B,1.0,3.0,1974.0,5.0,14.0,,,,,,,,,,,,,,,,,,,,,,,,,,,,,,,,,,,,,,,,,,,,,,,,,,43.55972222,142.04305556, 43:33:35,142:02:35,0113551
173,1983,1,81007.0,111990,2,1,136,1,1,美唄川上流,ヒ゛ハ゛イカ゛ワ  シ゛ヨウリユウ,,錦橋,ニシキハ゛シ,,A,1.0,3.0,1974.0,5.0,14.0,,,,,,,,,,,,,,,,,,,,,,,,,,,,,,,,,,,,,,,,,,,,,,01R522,,,,43.33138889,141.93250000, 43:19:53,141:55:57,0113601
174,1983,1,81007.0,112000,2,1,137,1,1,美唄川下流,ヒ゛ハ゛イカ゛ワ  カリユウ,,元村橋,モトムラハ゛シ,,B,1.0,3.0,1974.0,5.0,14.0,,,,,,,,,,,,,,,,,,,,,,,,,,,,,,,,,,,,,,,,,,,,,,01R521,,,,43.35111111,141.77305556, 43:21:04,141:46:23,0113701
175,1983,1,81007.0,112010,2,1,138,1,1,幾春別川上流,イクシユンヘ゛ツカ゛ワ  シ゛ヨウリユウ,,清松橋,キヨマツハ゛シ,,A,1.0,3.0,1974.0,5.0,14.0,,,,,,,,,,,,,,,1.0,3.0,,幾春別川上流,イクシユンヘ゛ツカ゛ワ  シ゛ヨウリユウ,,,,,,,,,,,,,,,,1.0,1.0,,,,,,,,,,01R512,,,,43.25388889,141.90083333, 43:15:14,141:54:03,0113801
176,1983,1,81007.0,112020,2,1,139,52,2,幾春別川下流,イクシユンヘ゛ツカ゛ワ  カリユウ,,北幌橋,キタホロハ゛シ,,B,1.0,3.0,1974.0,5.0,14.0,,,,,,,,,,,,,,,,,,,,,,,,,,,,,,,,,,,,,,,,,,,,,,01R511,,,,43.21527778,141.67083333, 43:12:55,141:40:15,0113952
178,1983,1,81007.0,112040,2,1,140,1,1,夕張川上流,ユウハ゛リカ゛ワ  シ゛ヨウリユウ,,夕張市上水南部浄水場取水口,ナンフ゛シ゛ヨウスイシ゛ヨウシユスイクチ,,AA,1.0,3.0,1974.0,5.0,14.0,,,,,,,,,,,,,,,1.0,3.0,,夕張川上流,ユウハ゛リカ゛ワ  シ゛ヨウリユウ,,,,,,,,,,,,,,,,1.0,1.0,,,,,,,,,,01R0095,,,,43.02083333,142.08972222, 43:01:15,142:05:23,0114001
179,1983,1,81007.0,112050,2,1,141,1,1,夕張川中流,ユウハ゛リカ゛ワ  チユウリユウ,,馬追橋,ウマオイハ゛シ,,A,1.0,3.0,1974.0,5.0,14.0,,,,,,,,,,,,,,,1.0,3.0,,夕張川中流,ユウハ゛リカ゛ワ  チユウリユウ,,,,,,,,,,,,,,,,1.0,1.0,,,,,,,,,,01R0092,,,,43.06194444,141.76861111, 43:03:43,141:46:07,0114101
180,1983,1,81007.0,112060,2,1,141,2,1,夕張川中流,ユウハ゛リカ゛ワ  チユウリユウ,,川端橋,カワハ゛タハ゛シ,,A,1.0,3.0,1974.0,5.0,14.0,,,,,,,,,,,,,,,1.0,3.0,,夕張川中流,ユウハ゛リカ゛ワ  チユウリユウ,,,,,,,,,,,,,,,,1.0,1.0,,,,,,,,,,01R0093,,,,42.91861111,141.91083333, 42:55:07,141:54:39,0114102
181,1983,1,81007.0,112070,2,1,141,51,2,夕張川中流,ユウハ゛リカ゛ワ  チユウリユウ,,清沼橋,キヨヌマハ゛シ,,A,1.0,3.0,1974.0,5.0,14.0,,,,,,,,,,,,,,,1.0,3.0,,夕張川中流,ユウハ゛リカ゛ワ  チユウリユウ,,,,,,,,,,,,,,,,1.0,1.0,,,,,,,,,,,,,,42.97027778,142.00888889, 42:58:13,142:00:32,0114151
182,1983,1,81007.0,112080,2,1,142,1,1,夕張川下流,ユウハ゛リカ゛ワ  カリユウ,,江別大橋,エヘ゛ツオオハシ,,B,1.0,3.0,1974.0,5.0,14.0,,,,,,,,,,,,,,,1.0,3.0,,夕張川下流,ユウハ゛リカ゛ワ  カリユウ,,,,,,,,,,,,,,,,1.0,1.0,,,,,,,,,,01R009,,,,43.12111111,141.59805556, 43:07:16,141:35:53,0114201
183,1983,1,81007.0,112100,2,1,143,1,1,千歳川上流,チトセカ゛ワ  シ゛ヨウリユウ,,サケマスふ化場千歳支場,サケマス  フカシ゛ヨウ  チトセシシ゛ヨウ,,AA,1.0,3.0,1974.0,5.0,14.0,,,,,,,,,,,,,,,1.0,3.0,,千歳川上流,チトセカ゛ワ  シ゛ヨウリユウ,,,,,,,,,,,,,,,,1.0,1.0,,,,,,,,,,01R013,,,,42.80750000,141.56916667, 42:48:27,141:34:09,0114301
184,1983,1,81007.0,112130,2,1,144,52,2,千歳川下流,チトセカ゛ワ  カリユウ,,舞鶴橋,マイツ゛ルハ゛シ,,A,1.0,3.0,1974.0,5.0,14.0,,,,,,,,,,,,,,,1.0,3.0,,千歳川下流,チトセカ゛ワ  カリユウ,,,,,,,,,,,,,,,,1.0,1.0,,,,,,,,,,,,,,42.94194444,141.65305556, 42:56:31,141:39:11,0114452
185,1983,1,81007.0,112140,2,1,145,1,1,篠津川,シノツカ゛ワ,,篠津橋,シノツハ゛シ,,A,1.0,3.0,1974.0,5.0,14.0,,,,,,,,,,,,,,,1.0,3.0,,篠津川,シノツカ゛ワ,,,,,,,,,,,,,,,,1.0,1.0,,,,,,,,,,01R661,,,,43.13861111,141.51750000, 43:08:19,141:31:03,0114501
186,1983,1,81007.0,112150,2,1,146,1,1,豊平川上流,トヨヒラカ゛ワ  シ゛ヨウリユウ,,札幌市上水白川浄水場取水口,シライカワ  シ゛ヨウスイシユスイク゛チ,,A,1.0,3.0,1974.0,5.0,14.0,,,,,,,,,,,,,,,1.0,3.0,,豊平川上流,トヨヒラカ゛ワ  シ゛ヨウリユウ,,,,,,,,,,,,,,,,1.0,1.0,,,,,,,,,,01R601,,,,42.96583333,141.27527778, 42:57:57,141:16:31,0114601
187,1983,1,81007.0,112160,2,1,147,1,1,豊平川中流,トヨヒラカ゛ワ  チユウリユウ,,東橋,アス゛マハ゛シ,,B,1.0,3.0,1974.0,5.0,14.0,,,,,,,,,,,,,,,1.0,3.0,,豊平川中流,トヨヒラカ゛ワ  チユウリユウ,,,,,,,,,,,,,,,,1.0,1.0,,,,,,,,,,01R602,,,,43.06472222,141.38027778, 43:03:53,141:22:49,0114701
188,1983,1,81007.0,112170,2,1,147,51,2,豊平川中流,トヨヒラカ゛ワ  チユウリユウ,,藻南橋,モナミハ゛シ,,B,1.0,3.0,1974.0,5.0,14.0,,,,,,,,,,,,,,,1.0,3.0,,豊平川中流,トヨヒラカ゛ワ  チユウリユウ,,,,,,,,,,,,,,,,1.0,1.0,,,,,,,,,,,,,,42.98250000,141.34027778, 42:58:57,141:20:25,0114751
189,1983,1,81007.0,112180,2,1,148,1,1,豊平川下流,トヨヒラカ゛ワ  カリユウ,,中沼し尿処理場取水口（中沼）,ナカヌマ  シニヨウシヨリシ゛ヨウ,,B,3.0,3.0,1974.0,5.0,14.0,,,,,,,,,,,,,,,1.0,3.0,,豊平川下流,トヨヒラカ゛ワ  カリユウ,,,,,,,,,,,,,,,,1.0,1.0,,,,,,,,,,01R607,,,,43.13861111,141.45361111, 43:08:19,141:27:13,0114801
190,1983,1,81007.0,112190,2,1,148,52,2,豊平川下流,トヨヒラカ゛ワ  カリユウ,,厚別７号橋,アツヘ゛ツ  ７  コ゛ウハ゛シ,,B,3.0,3.0,1974.0,5.0,14.0,,,,,,,,,,,,,,,1.0,3.0,,豊平川下流,トヨヒラカ゛ワ  カリユウ,,,,,,,,,,,,,,,,1.0,1.0,,,,,,,,,,,,,,43.09138889,141.47027778, 43:05:29,141:28:13,0114852
191,1983,1,81007.0,112200,2,1,148,53,2,豊平川下流,トヨヒラカ゛ワ  カリユウ,,野津幌川７号橋,ノツホ゜ロカ゛ワ  ７  コ゛ウハ゛シ,,B,3.0,3.0,1974.0,5.0,14.0,,,,,,,,,,,,,,,1.0,3.0,,豊平川下流,トヨヒラカ゛ワ  カリユウ,,,,,,,,,,,,,,,,1.0,1.0,,,,,,,,,,,,,,43.08972222,141.47638889, 43:05:23,141:28:35,0114853
192,1983,1,81007.0,112210,2,1,148,54,2,豊平川下流,トヨヒラカ゛ワ  カリユウ,,東栄橋,トウエイハ゛シ,,B,3.0,3.0,1974.0,5.0,14.0,,,,,,,,,,,,,,,1.0,3.0,,豊平川下流,トヨヒラカ゛ワ  カリユウ,,,,,,,,,,,,,,,,1.0,1.0,,,,,,,,,,,,,,43.08527778,141.43361111, 43:05:07,141:26:01,0114854
193,1983,1,81007.0,112230,2,1,149,1,1,南の沢川,ミナミノサワカ゛ワ,,川沿橋,カワソ゛エハ゛シ,,B,2.0,3.0,1974.0,5.0,14.0,,,,,,,,,,,,,,,1.0,3.0,,南の沢川,ミナミノサワカ゛ワ,,,,,,,,,,,,,,,,1.0,1.0,,,,,,,,,,01R619,,,,42.98138889,141.32972222, 42:58:53,141:19:47,0114901
194,1983,1,81007.0,112240,2,1,150,3,1,北の沢川,キタノサワカ゛ワ,,北の沢橋,キタノサワハ゛シ,,B,2.0,3.0,1974.0,5.0,14.0,,,,,,,,,,,,,,,1.0,3.0,,北の沢川,キタノサワカ゛ワ,,,,,,,,,,,,,,,,1.0,1.0,,,,,,,,,,01R617,,,,43.00194444,141.34138889, 43:00:07,141:20:29,0115003
195,1983,1,81007.0,112250,2,1,151,1,1,真駒内川,マコマナイカ゛ワ,,五輪小橋,コ゛リンコハ゛シ,,A,2.0,3.0,1974.0,5.0,14.0,,,,,,,,,,,,,,,1.0,3.0,,真駒内川,マコマナイカ゛ワ,,,,,,,,,,,,,,,,1.0,1.0,,,,,,,,,,01R616,,,,42.99861111,141.34416667, 42:59:55,141:20:39,0115101
196,1983,1,81007.0,112260,2,1,152,1,1,精進川,シヨウシ゛ンカ゛ワ,,精進川放水路分派前,ホウスイロフ゛ンハ゜マエ,,B,2.0,3.0,1974.0,5.0,14.0,,,,,,,,,,,,,,,1.0,3.0,,精進川,シヨウシ゛ンカ゛ワ,,,,,,,,,,,,,,,,1.0,1.0,,,,,,,,,,01R615,,,,43.01416667,141.35583333, 43:00:51,141:21:21,0115201
197,1983,1,81007.0,112270,2,1,153,1,1,望月寒川,モツキサムカ゛ワ,,函館本線鉄橋（望月寒鉄北橋）,ハコタ゛テホンセンテツキヨウ,,B,2.0,3.0,1974.0,5.0,14.0,,,,,,,,,,,,,,,1.0,3.0,,望月寒川,モツキサムカ゛ワ,,,,,,,,,,,,,,,,1.0,1.0,,,,,,,,,,01R614,,,,43.06138889,141.40305556, 43:03:41,141:24:11,0115301
198,1983,1,81007.0,112280,2,1,154,1,1,月寒川,ツキサムカ゛ワ,,函館本線鉄橋（月寒鉄北橋）,ハコタ゛テホンセンテツキヨウ,,B,2.0,3.0,1974.0,5.0,14.0,,,,,,,,,,,,,,,1.0,3.0,,月寒川,ツキサムカ゛ワ,,,,,,,,,,,,,,,,1.0,1.0,,,,,,,,,,01R612,,,,43.04694444,141.43111111, 43:02:49,141:25:52,0115401
199,1983,1,81007.0,112290,2,1,155,1,1,厚別川,アツヘ゛ツカ゛ワ,,函館本線鉄橋（厚別鉄北橋）,ハコタ゛テホンセンテツキヨウ,,B,2.0,3.0,1974.0,5.0,14.0,,,,,,,,,,,,,,,1.0,3.0,,厚別川,アツヘ゛ツカ゛ワ,,,,,,,,,,,,,,,,1.0,1.0,,,,,,,,,,01R609,,,,43.04361111,141.45472222, 43:02:37,141:27:17,0115501
200,1983,1,81007.0,112300,2,1,156,1,1,野津幌川,ノツホ゜ロカ゛ワ,,水恋橋,ミス゛コイハ゛シ,,B,2.0,3.0,1974.0,5.0,14.0,,,,,,,,,,,,,,,1.0,3.0,,野津幌川,ノツホ゜ロカ゛ワ,,,,,,,,,,,,,,,,1.0,1.0,,,,,,,,,,01R611,,,,43.04583333,141.47361111, 43:02:45,141:28:25,0115601
201,1983,1,81007.0,112310,2,1,157,1,1,当別川,トウヘ゛ツカ゛ワ,,１９線橋,１９  センハ゛シ,,A,1.0,3.0,1974.0,5.0,14.0,,,,,,,,,,,,,,,1.0,3.0,,当別川,トウヘ゛ツカ゛ワ,,,,,,,,,,,,,,,,1.0,1.0,,,,,,,,,,01R651,,,,43.16750000,141.46472222, 43:10:03,141:27:53,0115701
202,1983,1,81007.0,112320,2,1,158,1,1,茨戸川上流,ハ゛ラトカ゛ワ  シ゛ヨウリユウ,,生振８線排水路南側地先,オヤフル  ８  センミナミカ゛ワチサキ,,B,2.0,3.0,1974.0,5.0,14.0,,,,,,,,,,,,,,,,,,,,,,,,,,,,,,,,,,,,,,,,,,,,,,01R636,,,,43.17305556,141.38916667, 43:10:23,141:23:21,0115801
203,1983,1,81007.0,112330,2,1,159,1,1,茨戸川中流,ハ゛ラトカ゛ワ  チユウリユウ,,茨戸橋,ハ゛ラトハ゛シ,,B,3.0,3.0,1974.0,5.0,14.0,,,,,,,,,,,,,,,1.0,3.0,,茨戸川中流,ハ゛ラトカ゛ワ  チユウリユウ,,,,,,,,,,,,,,,,1.0,1.0,,,,,,,,,,01R641,,,,43.16583333,141.35138889, 43:09:57,141:21:05,0115901
204,1983,1,81007.0,112340,2,1,159,2,1,茨戸川中流,ハ゛ラトカ゛ワ  チユウリユウ,,樽川合流前,タルカワコ゛ウリユウマエ,,B,3.0,3.0,1974.0,5.0,14.0,,,,,,,,,,,,,,,,,,,,,,,,,,,,,,,,,,,,,,,,,,,,,,01R634,,,,43.17361111,141.32083333, 43:10:25,141:19:15,0115902
205,1983,1,81007.0,112350,2,1,159,51,2,茨戸川中流,ハ゛ラトカ゛ワ  チユウリユウ,,生振２線南側地先,オヤフル  ２  センミナミカ゛ワチサキ,,B,3.0,3.0,1974.0,5.0,14.0,,,,,,,,,,,,,,,,,,,,,,,,,,,,,,,,,,,,,,,,,,,,,,,,,,43.17500000,141.34527778, 43:10:30,141:20:43,0115951
206,1983,1,81007.0,112360,2,1,159,52,2,茨戸川中流,ハ゛ラトカ゛ワ  チユウリユウ,,茨戸耕北橋,ハ゛ラトコウホクハ゛シ,,B,3.0,3.0,1974.0,5.0,14.0,,,,,,,,,,,,,,,1.0,3.0,,茨戸川中流,ハ゛ラトカ゛ワ  チユウリユウ,,,,,,,,,,,,,,,,1.0,1.0,,,,,,,,,,,,,,43.15750000,141.35305556, 43:09:27,141:21:11,0115952
207,1983,1,81007.0,112370,2,1,160,1,1,茨戸川下流,ハ゛ラトカ゛ワ  カリユウ,,生振３線北側地先,オヤフル  ３  センキタカ゛ワチサキ,,B,2.0,3.0,1974.0,5.0,14.0,,,,,,,,,,,,,,,,,,,,,,,,,,,,,,,,,,,,,,,,,,,,,,01R632,,,,43.20916667,141.34722222, 43:12:33,141:20:50,0116001
208,1983,1,81007.0,112380,2,1,160,51,2,茨戸川下流,ハ゛ラトカ゛ワ  カリユウ,,運河橋,ウンカ゛ハ゛シ,,B,2.0,3.0,1974.0,5.0,14.0,,,,,,,,,,,,,,,,,,,,,,,,,,,,,,,,,,,,,,,,,,,,,,,,,,43.22472222,141.35250000, 43:13:29,141:21:09,0116051
209,1983,1,81007.0,112390,2,1,160,52,2,茨戸川下流,ハ゛ラトカ゛ワ  カリユウ,,生振１線北側地先,オヤフル  １  センキタカ゛ワチサキ,,B,2.0,3.0,1974.0,5.0,14.0,,,,,,,,,,,,,,,,,,,,,,,,,,,,,,,,,,,,,,,,,,,,,,,,,,43.18527778,141.33472222, 43:11:07,141:20:05,0116052
210,1983,1,81007.0,112400,2,1,161,1,1,創成川,ソウセイカ゛ワ,,北１６条橋,キタ  １６  シ゛ヨウハ゛シ,,B,1.0,3.0,1974.0,5.0,14.0,,,,,,,,,,,,,,,1.0,3.0,,創成川,ソウセイカ゛ワ,,,,,,,,,,,,,,,,1.0,1.0,,,,,,,,,,01R642,,,,43.08027778,141.35138889, 43:04:49,141:21:05,0116101
211,1983,1,81236.0,112410,2,1,162,1,1,風蓮川,フウレンカ゛ワ,,風蓮橋,フウレンハ゛シ,,A,1.0,3.0,1975.0,4.0,1.0,,,,,,,,,,,,,,,,,,,,,,,,,,,,,,,,,,,,,,,,,,,,,,01R187,,,,43.27750000,145.22861111, 43:16:39,145:13:43,0116201
212,1983,1,81236.0,112420,2,1,163,1,1,別当賀川,ヘ゛ツトウカ゛カ゛ワ,,別当賀橋,ヘ゛ツトウカ゛ハ゛シ,,A,1.0,3.0,1975.0,4.0,1.0,,,,,,,,,,,,,,,,,,,,,,,,,,,,,,,,,,,,,,,,,,,,,,01R188,,,,43.25666667,145.40472222, 43:15:24,145:24:17,0116301
213,1983,1,81236.0,112430,2,1,164,1,1,ポンヤウシュベツ川,ホ゜ンヤウシユヘ゛ツカ゛ワ,,ポン川橋,ホ゜ンカ゛ワハ゛シ,,A,1.0,3.0,1975.0,4.0,1.0,,,,,,,,,,,,,,,,,,,,,,,,,,,,,,,,,,,,,,,,,,,,,,01R189,,,,43.36416667,145.22055556, 43:21:51,145:13:14,0116401
214,1983,1,81236.0,112440,2,1,165,1,1,ヤウシュベツ川,ヤウシユヘ゛ツカ゛ワ,,万年橋,マンネンハ゛シ,,A,1.0,3.0,1975.0,4.0,1.0,,,,,,,,,,,,,,,,,,,,,,,,,,,,,,,,,,,,,,,,,,,,,,01R190,,,,43.34444444,145.21527778, 43:20:40,145:12:55,0116501
215,1983,1,81013.0,112450,2,1,166,1,1,トムラウシ川,トムラウシカ゛ワ,,あけぼの橋,アケホ゛ノハ゛シ,,AA,1.0,3.0,1975.0,4.0,1.0,,,,,,,,,,,,,,,,,,,,,,,,,,,,,,,,,,,,,,,,,,,,,,01R2502,,,,43.41250000,142.89388889, 43:24:45,142:53:38,0116601
216,1983,1,81013.0,112460,2,1,167,1,1,佐幌川上流,サホロカ゛ワ  シ゛ヨウリユウ,,清水橋,シミス゛ハ゛シ,,A,1.0,3.0,1975.0,4.0,1.0,,,,,,,,,,,,,,,1.0,3.0,,佐幌川上流,サホロカ゛ワ  シ゛ヨウリユウ,,,,,,,,,,,,,,,,1.0,1.0,,,,,,,,,,01R2531,,,,43.02166667,142.90277778, 43:01:18,142:54:10,0116701
217,1983,1,81013.0,112470,2,1,168,1,1,佐幌川下流,サホロカ゛ワ  カリユウ,,佐幌橋,サホロハ゛シ,,B,1.0,3.0,1975.0,4.0,1.0,,,,,,,,,,,,,,,1.0,3.0,,佐幌川下流,サホロカ゛ワ  カリユウ,,,,,,,,,,,,,,,,1.0,1.0,,,,,,,,,,01R253,,,,42.99916667,142.91611111, 42:59:57,142:54:58,0116801
218,1983,1,81013.0,112480,2,1,169,1,1,小林川,コハ゛ヤシカ゛ワ,,讃岐橋,サヌキハ゛シ,,A,1.0,3.0,1975.0,4.0,1.0,,,,,,,,,,,,,,,1.0,3.0,,小林川,コハ゛ヤシカ゛ワ,,,,,,,,,,,,,,,,1.0,1.0,,,,,,,,,,01R2532,,,,42.98361111,142.93083333, 42:59:01,142:55:51,0116901
219,1983,1,81013.0,112490,2,1,170,1,1,芽室川,メムロカ゛ワ,,毛根中島橋,ケネナカシ゛マハ゛シ,,A,1.0,3.0,1975.0,4.0,1.0,,,,,,,,,,,,,,,1.0,3.0,,芽室川,メムロカ゛ワ,,,,,,,,,,,,,,,,1.0,1.0,,,,,,,,,,01R2513,,,,42.92333333,143.03166667, 42:55:24,143:01:54,0117001
220,1983,1,81013.0,112500,2,1,171,1,1,美生川,ヒ゛セイカ゛ワ,,新生橋,シンセイハ゛シ,,AA,1.0,3.0,1975.0,4.0,1.0,,,,,,,,,,,,,,,1.0,3.0,,美生川,ヒ゛セイカ゛ワ,,,,,,,,,,,,,,,,1.0,1.0,,,,,,,,,,01R2512,,,,42.90361111,143.04777778, 42:54:13,143:02:52,0117101
221,1983,1,81013.0,112510,2,1,172,1,1,然別川上流,シカリヘ゛ツカ゛ワ  シ゛ヨウリユウ,,瓜幕橋,ウリマクハ゛シ,,AA,1.0,3.0,1975.0,4.0,1.0,,,,,,,,,,,,,,,,,,,,,,,,,,,,,,,,,,,,,,,,,,,,,,01R2596,,,,43.17055556,142.98305556, 43:10:14,142:58:59,0117201
222,1983,1,81013.0,112520,2,1,173,1,1,然別川下流,シカリヘ゛ツカ゛ワ  カリユウ,,国見橋,クニミハ゛シ,,A,1.0,3.0,1975.0,4.0,1.0,,,,,,,,,,,,,,,1.0,3.0,,然別川下流,シカリヘ゛ツカ゛ワ  カリユウ,,,,,,,,,,,,,,,,1.0,1.0,,,,,,,,,,01R2595,,,,42.95138889,143.14722222, 42:57:05,143:08:50,0117301
223,1983,1,81013.0,112540,2,1,175,1,1,音更川下流,オトフケカ゛ワ  カリユウ,,十勝新橋,トカチシンハ゛シ,,A,2.0,3.0,1975.0,4.0,1.0,,,,,,,,,,,,,,,,,,,,,,,,,,,,,,,,,,,,,,,,,,,,,,01R254,,,,42.94722222,143.21138889, 42:56:50,143:12:41,0117501
224,1983,1,81013.0,112550,2,1,175,51,2,音更川下流,オトフケカ゛ワ  カリユウ,,音更橋（音更）,オトフケハ゛シ,,A,2.0,3.0,1975.0,4.0,1.0,,,,,,,,,,,,,,,,,,,,,,,,,,,,,,,,,,,,,,,,,,,,,,,,,,43.00888889,143.20027778, 43:00:32,143:12:01,0117551
225,1983,1,81013.0,112560,2,1,176,1,1,帯広川上流,オヒ゛ヒロカ゛ワ  シ゛ヨウリユウ,,西８条橋,ニシ  ８  シ゛ヨウハ゛シ,,A,1.0,3.0,1975.0,4.0,1.0,,,,,,,,,,,,,,,,,,,,,,,,,,,,,,,,,,,,,,,,,,,,,,01R2593,,,,42.92777778,143.19166667, 42:55:40,143:11:30,0117601
226,1983,1,81013.0,112570,2,1,177,1,1,帯広川下流,オヒ゛ヒロカ゛ワ  カリユウ,,十勝川合流前,トカチカ゛ワコ゛ウリユウマエ,,B,2.0,3.0,1975.0,4.0,1.0,,,,,,,,,,,,,,,,,,,,,,,,,,,,,,,,,,,,,,,,,,,,,,01R2592,,,,42.93194444,143.23500000, 42:55:55,143:14:06,0117701
227,1983,1,81013.0,112580,2,1,178,52,2,札内川上流,サツナイカ゛ワ  シ゛ヨウリユウ,,帯広市上水帯広浄水場取水口,オヒ゛ヒロ  シ゛ヨウスイ  シユスイクチ,,AA,1.0,3.0,1975.0,4.0,1.0,,,,,,,,,,,,,,,,,,,,,,,,,,,,,,,,,,,,,,,,,,,,,,01R2551,,,,42.87916667,143.20750000, 42:52:45,143:12:27,0117852
228,1983,1,81013.0,112590,2,1,178,2,1,札内川上流,サツナイカ゛ワ  シ゛ヨウリユウ,,南帯橋,ナンタイハ゛シ,,AA,1.0,3.0,1975.0,4.0,1.0,,,,,,,,,,,,,,,1.0,3.0,,札内川上流,サツナイカ゛ワ  シ゛ヨウリユウ,,,,,,,,,,,,,,,,1.0,1.0,,,,,,,,,,,,,,42.84027778,143.18583333, 42:50:25,143:11:09,0117802
229,1983,1,81013.0,112600,2,1,179,1,1,札内川下流,サツナイカ゛ワ  カリユウ,,札内橋,サツナイハ゛シ,,A,1.0,3.0,1975.0,4.0,1.0,,,,,,,,,,,,,,,1.0,3.0,,札内川下流,サツナイカ゛ワ  カリユウ,,,,,,,,,,,,,,,,1.0,1.0,,,,,,,,,,01R255,,,,42.92555556,143.23000000, 42:55:32,143:13:48,0117901
230,1983,1,81013.0,112610,2,1,180,1,1,士幌川,シホロカ゛ワ,,旭橋,アサヒハ゛シ,,A,1.0,3.0,1975.0,4.0,1.0,,,,,,,,,,,,,,,,,,,,,,,,,,,,,,,,,,,,,,,,,,,,,,01R2553,,,,42.94666667,143.26805556, 42:56:48,143:16:05,0118001
231,1983,1,81013.0,112620,2,1,181,1,1,途別川,トヘ゛ツカ゛ワ,,千住橋,センシ゛ユウハ゛シ,,A,1.0,3.0,1975.0,4.0,1.0,,,,,,,,,,,,,,,1.0,3.0,,途別川,トヘ゛ツカ゛ワ,,,,,,,,,,,,,,,,1.0,1.0,,,,,,,,,,01R2552,,,,42.91861111,143.29805556, 42:55:07,143:17:53,0118101
232,1983,1,81013.0,112630,2,1,182,1,1,猿別川,サルヘ゛ツカ゛ワ,,止若橋,ヤムワツカハ゛シ,,A,1.0,3.0,1975.0,4.0,1.0,,,,,,,,,,,,,,,1.0,3.0,,猿別川,サルヘ゛ツカ゛ワ,,,,,,,,,,,,,,,,1.0,1.0,,,,,,,,,,01R2581,,,,42.91027778,143.35583333, 42:54:37,143:21:21,0118201
233,1983,1,81013.0,112640,2,1,183,1,1,利別川,トシヘ゛ツカ゛ワ,,川合橋,カワイハ゛シ,,A,1.0,3.0,1975.0,4.0,1.0,,,,,,,,,,,,,,,1.0,3.0,,利別川,トシヘ゛ツカ゛ワ,,,,,,,,,,,,,,,,1.0,1.0,,,,,,,,,,01R2562,,,,42.88416667,143.45194444, 42:53:03,143:27:07,0118301
234,1983,1,81013.0,112650,2,1,183,51,2,利別川,トシヘ゛ツカ゛ワ,,池田大橋（利別）,イケタ゛オオハシ  （  トシヘ゛ツ  ）,,A,1.0,3.0,1975.0,4.0,1.0,,,,,,,,,,,,,,,,,,,,,,,,,,,,,,,,,,,,,,,,,,,,,,,,,,42.92805556,143.44138889, 42:55:41,143:26:29,0118351
235,1983,1,81013.0,112660,2,1,183,52,2,利別川,トシヘ゛ツカ゛ワ,,足寄橋,アシヨロハ゛シ,,A,1.0,3.0,1975.0,4.0,1.0,,,,,,,,,,,,,,,,,,,,,,,,,,,,,,,,,,,,,,,,,,,,,,,,,,43.25416667,143.54805556, 43:15:15,143:32:53,0118352
236,1983,1,81013.0,112670,2,1,184,1,1,牛首別川,ウシシユヘ゛ツカ゛ワ,,農野牛橋,ノヤウシハ゛シ,,A,1.0,3.0,1975.0,4.0,1.0,,,,,,,,,,,,,,,1.0,3.0,,牛首別川,ウシシユヘ゛ツカ゛ワ,,,,,,,,,,,,,,,,1.0,1.0,,,,,,,,,,01R2585,,,,42.80916667,143.49472222, 42:48:33,143:29:41,0118401
237,1983,1,81221.0,112680,2,1,188,51,2,勇払川上流,ユウフツカ゛ワシ゛ヨウリユウ,,苫小牧市上水勇振浄水場取水口,ユウフリシ゛ヨウスイシ゛ヨウシユスイクチ,,AA,1.0,3.0,1981.0,7.0,20.0,,,,,,,,,,,,,,,,,,,,,,,,,,,,,,,,,,,,,,,,,,,,,,,,,,42.71750000,141.56138889, 42:43:03,141:33:41,0118851
238,1983,1,81221.0,112690,2,1,187,1,1,安平川,アヒ゛ラカ゛ワ,,勇払橋,ユウフツハ゛シ,,A,1.0,3.0,1981.0,7.0,20.0,,,,,,,,,,,,,,,1.0,3.0,,安平川,アヒ゛ラカ゛ワ,,,,,,,,,,,,,,,,1.0,1.0,,,,,,,,,,,,,,43.15916667,141.34694444, 43:09:33,141:20:49,0118701
239,1983,1,81221.0,112700,2,1,187,2,1,安平川,アヒ゛ラカ゛ワ,,静川橋,シス゛カワハ゛シ,,A,1.0,3.0,1981.0,7.0,20.0,,,,,,,,,,,,,,,,,,,,,,,,,,,,,,,,,,,,,,,,,,,,,,,,,,42.66833333,141.79277778, 42:40:06,141:47:34,0118702
240,1983,1,81520.0,112710,2,1,190,1,1,有珠川,ウスカ゛ワ,,寿橋,コトフ゛キハ゛シ,,A,1.0,3.0,1981.0,7.0,20.0,,,,,,,,,,,,,,,1.0,3.0,,,ウスカ゛ワ,,,,,,,,,,,,,,,,1.0,1.0,,,,,,,,,,,,,,43.16138889,141.35750000, 43:09:41,141:21:27,0119001
241,1983,1,81520.0,112720,2,1,191,1,1,小糸魚川,コイトイカ゛ワ,,小糸魚橋,コイトイハ゛シ,,A,1.0,3.0,1981.0,7.0,20.0,,,,,,,,,,,,,,,,,,,,,,,,,,,,,,,,,,,,,,,,,,,,,,,,,,42.61361111,141.52194444, 42:36:49,141:31:19,0119101
242,1983,1,81520.0,112730,2,1,193,1,1,錦多峰川下流,ニシタツフ゜カ゛ワカリユウ,,錦岡橋,ニシキオカハ゛シ,,A,1.0,3.0,1981.0,7.0,20.0,,,,,,,,,,,,,,,,,,,,,,,,,,,,,,,,,,,,,,,,,,,,,,,,,,42.60694444,141.50194444, 42:36:25,141:30:07,0119301
243,1983,1,81520.0,112740,2,1,194,1,1,覚生川,オホ゛ツフ゜カ゛ワ,,覚生橋,オホ゛ツフ゜ハ゛シ,,A,1.0,3.0,1981.0,7.0,20.0,,,,,,,,,,,,,,,,,,,,,,,,,,,,,,,,,,,,,,,,,,,,,,,,,,42.59305556,141.46194444, 42:35:35,141:27:43,0119401
244,1983,1,81520.0,112750,2,1,195,1,1,樽前川,タルマエカ゛ワ,,樽前橋,タルマエハ゛シ,,A,1.0,3.0,1981.0,7.0,20.0,,,,,,,,,,,,,,,,,,,,,,,,,,,,,,,,,,,,,,,,,,,,,,,,,,42.58916667,141.44888889, 42:35:21,141:26:56,0119501
245,1983,1,81520.0,112760,2,1,196,1,1,別々川,ヘ゛ツヘ゛ツカ゛ワ,,別々橋,ヘ゛ツヘ゛ツハ゛シ,,A,1.0,3.0,1981.0,7.0,20.0,,,,,,,,,,,,,,,,,,,,,,,,,,,,,,,,,,,,,,,,,,,,,,,,,,42.57916667,141.42222222, 42:34:45,141:25:20,0119601
246,1983,1,81519.0,112770,2,1,209,1,0,チマイベツ川,チマイヘ゛ツカ゛ワ,,第２チマイベツ橋（国道橋）,タ゛イ  ２  チマイヘ゛ツハ゛シ,,,,,,,,,,,,,,,,,,,,,,,,,,,,,,,,,,,,,,,,,,,,,,,,,,,,,,,,,42.38194444,140.91638889, 42:22:55,140:54:59,0120901
247,1983,1,81007.0,112780,2,1,210,1,0,琴似川,コトニカ゛ワ,,新川橋,シンカワハ゛シ,,,,,,,,,,,,,,,,,,,,,,1.0,3.0,,琴似川,コトニカ゛ワ,,,,,,,,,,,,,,,,1.0,1.0,,,,,,,,,,,,,,43.09222222,141.32027778, 43:05:32,141:19:13,0121001
248,1983,1,,112790,2,1,211,1,0,発寒川,ハツサムカ゛ワ,,創成川合流前（無名橋）,ソウセイカ゛ワコ゛ウリユウマエ,,,,,,,,,,,,,,,,,,,,,,1.0,3.0,,発寒川,ハツサムカ゛ワ,,,,,,,,,,,,,,,,1.0,1.0,,,,,,,,,,,,,,43.15888889,141.34638889, 43:09:32,141:20:47,0121101
249,1983,1,,112800,2,1,212,1,0,伏篭川,フシコカ゛ワ,,伏篭橋,フシコハ゛シ,,,,,,,,,,,,,,,,,,,,,,1.0,3.0,,伏篭川,フシコカ゛ワ,,,,,,,,,,,,,,,,1.0,1.0,,,,,,,,,,,,,,43.16166667,141.35694444, 43:09:42,141:21:25,0121201
250,1983,1,81007.0,112810,2,1,213,1,0,産化美唄川,サンカヒ゛ハ゛イカ゛ワ,,弘法橋,コウホ゛ウハ゛シ,,,,,,,,,,,,,,,,,,,,,,,,,,,,,,,,,,,,,,,,,,,,,,,,,,,,,,,,,43.35694444,141.78166667, 43:21:25,141:46:54,0121301
251,1983,1,81007.0,112820,2,1,214,1,0,奈井江川,ナイエカ゛ワ,,石狩川合流前,イシカリカ゛ワコ゛ウリユウマエ,,,,,,,,,,,,,,,,,,,,,,1.0,3.0,,奈井江川,ナイエカ゛ワ,,,,,,,,,,,,,,,,1.0,1.0,,,,,,,,,,,,,,43.41416667,141.84472222, 43:24:51,141:50:41,0121401
252,1983,1,81007.0,112830,2,1,215,1,0,ウッペツ川,ウツヘ゜ツカ゛ワ,,新生橋,シンセイハ゛シ,,,,,,,,,,,,,,,,,,,,,,,,,,,,,,,,,,,,,,,,,,,,,,,,,,,,,,,,,43.79194444,142.31888889, 43:47:31,142:19:08,0121501
253,1983,1,81007.0,112840,2,1,216,1,0,美瑛川,ヒ゛エイカ゛ワ,,新開橋,シンカイハ゛シ,,,,,,,,,,,,,,,,,,,,,,1.0,3.0,,美瑛川,ヒ゛エイカ゛ワ,,,,,,,,,,,,,,,,1.0,1.0,,,,,,,,,,,,,,43.67972222,142.37833333, 43:40:47,142:22:42,0121601
254,1983,1,81007.0,112850,2,1,216,2,0,美瑛川,ヒ゛エイカ゛ワ,,（美瑛）緑橋,（  ヒ゛エイ  ）  ミト゛リハ゛シ,,,,,,,,,,,,,,,,,,,,,,,,,,,,,,,,,,,,,,,,,,,,,,,,,,,,,,,,,43.58472222,142.46055556, 43:35:05,142:27:38,0121602
255,1983,1,81007.0,112860,2,1,217,1,0,基北川,キホクカ゛ワ,,９条橋,９  シ゛ヨウハ゛シ,,,,,,,,,,,,,,,,,,,,,,,,,,,,,,,,,,,,,,,,,,,,,,,,,,,,,,,,,43.76972222,142.38055556, 43:46:11,142:22:50,0121701
256,1983,1,81007.0,112870,2,1,218,1,0,ペイパン川,ヘ゜イハ゜ンカ゛ワ,,香取橋（牛朱別川合流前）,カトリハ゛シ,,,,,,,,,,,,,,,,,,,,,,,,,,,,,,,,,,,,,,,,,,,,,,,,,,,,,,,,,43.78972222,142.47444444, 43:47:23,142:28:28,0121801
257,1983,1,81002.0,112880,2,1,219,1,0,ウッツ川,ウツツカ゛ワ,,岡田橋（渚滑川合流前）,オカタ゛ハ゛シ,,,,,,,,,,,,,,,,,,,,,,,,,,,,,,,,,,,,,,,,,,,,,,,,,,,,,,,,,44.34027778,143.25777778, 44:20:25,143:15:28,0121901
258,1983,1,81002.0,112890,2,1,220,1,0,中渚滑豊盛川,ナカシヨコツホウセイカ゛ワ,,螢雪橋（渚滑川合流前）,ケイセツハ゛シ,,,,,,,,,,,,,,,,,,,,,,,,,,,,,,,,,,,,,,,,,,,,,,,,,,,,,,,,,44.31361111,143.29388889, 44:18:49,143:17:38,0122001
259,1983,1,81002.0,112900,2,1,220,2,0,中渚滑豊盛川,ナカシヨコツホウセイカ゛ワ,,竜昇殿鉱山抗水流入後,リユウシヨウテ゛ン  リユウニユウコ゛,,,,,,,,,,,,,,,,,,,,,,,,,,,,,,,,,,,,,,,,,,,,,,,,,,,,,,,,,44.30250000,143.32416667, 44:18:09,143:19:27,0122002
260,1983,1,81002.0,112910,2,1,221,1,0,清瀬川,キヨセカ゛ワ,,上渚滑橋,カミシヨコツハ゛シ,,,,,,,,,,,,,,,,,,,,,,,,,,,,,,,,,,,,,,,,,,,,,,,,,,,,,,,,,44.25388889,143.26472222, 44:15:14,143:15:53,0122101
261,1983,1,81209.0,112920,2,1,222,1,0,モベツ川,モヘ゛ツカ゛ワ,,宝生橋,ホウシヨウハ゛シ,,,,,,,,,,,,,,,,,,,,,,,,,,,,,,,,,,,,,,,,,,,,,,,,,,,,,,,,,44.30972222,143.36722222, 44:18:35,143:22:02,0122201
262,1983,1,81209.0,112930,2,1,222,2,0,モベツ川,モヘ゛ツカ゛ワ,,桜橋（沈殿池排水流入後）,サクラハ゛シ,,,,,,,,,,,,,,,,,,,,,,,,,,,,,,,,,,,,,,,,,,,,,,,,,,,,,,,,,44.18527778,143.33500000, 44:11:07,143:20:06,0122202
263,1983,1,81004.0,112940,2,1,223,1,0,無加川,ムカカ゛ワ,,常盤橋（北光社）,トキワハ゛シ,,,,,,,,,,,,,,,,,,,,,,,,,,,,,,,,,,,,,,,,,,,,,,,,,,,,,,,,,43.78805556,143.89333333, 43:47:17,143:53:36,0122301
264,1983,1,81004.0,112950,2,1,223,2,0,無加川,ムカカ゛ワ,,富士見橋,フシ゛ミハ゛シ,,,,,,,,,,,,,,,,,,,,,,,,,,,,,,,,,,,,,,,,,,,,,,,,,,,,,,,,,43.66750000,143.29888889, 43:40:03,143:17:56,0122302
265,1983,1,81004.0,112960,2,1,224,1,0,イトムカ川,イトムカカ゛ワ,,イトムカ鉱山抗水流入後,イトムカ  コウスイ  リユウニユウ  コ゛,,,,,,,,,,,,,,,,,,,,,,,,,,,,,,,,,,,,,,,,,,,,,,,,,,,,,,,,,43.67722222,143.16472222, 43:40:38,143:09:53,0122401
266,1983,1,81004.0,112970,2,1,224,2,0,イトムカ川,イトムカカ゛ワ,,イトムカ鉱山抗水流入前,イトムカ  コウスイ  リユウニユウ  マエ,,,,,,,,,,,,,,,,,,,,,,,,,,,,,,,,,,,,,,,,,,,,,,,,,,,,,,,,,43.67527778,143.16472222, 43:40:31,143:09:53,0122402
267,1983,1,81504.0,112980,2,1,225,1,0,ポンヤンベツ川,ホ゜ンヤンヘ゛ツカ゛ワ,,７線橋,７  センハ゛シ,,,,,,,,,,,,,,,,,,,,,,,,,,,,,,,,,,,,,,,,,,,,,,,,,,,,,,,,,43.87194444,144.47944444, 43:52:19,144:28:46,0122501
268,1983,1,81211.0,112990,2,1,226,1,0,サルマ川,サルマカ゛ワ,,斜里新大橋,シヤリシンオオハシ,,,,,,,,,,,,,,,,,,,,,,,,,,,,,,,,,,,,,,,,,,,,,,,,,,,,,,,,,43.89972222,144.64222222, 43:53:59,144:38:32,0122601
269,1983,1,,113000,2,1,227,1,0,クテクンベツ川,クテクンヘ゛ツカ゛ワ,,クテクンベツ橋,クテクンヘ゛ツハ゛シ,,,,,,,,,,,,,,,,,,,,,,,,,,,,,,,,,,,,,,,,,,,,,,,,,,,,,,,,,43.61527778,144.99527778, 43:36:55,144:59:43,0122701
270,1983,1,81237.0,113010,2,1,228,1,0,清丸別川,キヨマルヘ゛ツカ゛ワ,,清丸別川橋,キヨマルヘ゛ツカ゛ワハ゛シ,,,,,,,,,,,,,,,,,,,,,,,,,,,,,,,,,,,,,,,,,,,,,,,,,,,,,,,,,43.40527778,145.24472222, 43:24:19,145:14:41,0122801
271,1983,1,81237.0,113020,2,1,229,1,0,シカルンナイ川,シカルンナイカ゛ワ,,シカリナイ橋,シカリナイハ゛シ,,,,,,,,,,,,,,,,,,,,,,,,,,,,,,,,,,,,,,,,,,,,,,,,,,,,,,,,,43.36916667,145.02250000, 43:22:09,145:01:21,0122901
272,1983,1,81236.0,113030,2,1,230,1,0,ライベツ川,ライヘ゛ツカ゛ワ,,風蓮川合流前,フウレンカ゛ワコ゛ウリユウマエ,,,,,,,,,,,,,,,,,,,,,,,,,,,,,,,,,,,,,,,,,,,,,,,,,,,,,,,,,43.27305556,145.22361111, 43:16:23,145:13:25,0123001
273,1983,1,81012.0,113040,2,1,231,1,0,別保川,ヘ゛ツホ゜カ゛ワ,,別保橋,ヘ゛ツホ゜ハ゛シ,,,,,,,,,,,,,,,,,,,,,,,,,,,,,,,,,,,,,,,,,,,,,,,,,,,,,,,,,43.00138889,144.41666667, 43:00:05,144:25:00,0123101
274,1983,1,81012.0,113050,2,1,232,1,0,仁々志別川,ニニシヘ゛ツカ゛ワ,,不二橋,フシ゛ハ゛シ,,,,,,,,,,,,,,,,,,,,,,,,,,,,,,,,,,,,,,,,,,,,,,,,,,,,,,,,,43.01083333,144.36500000, 43:00:39,144:21:54,0123201
275,1983,1,81233.0,113060,2,1,233,1,0,庶路川,シヨロカ゛ワ,,庶路橋,シヨロハ゛シ,,,,,,,,,,,,,,,,,,,,,,,,,,,,,,,,,,,,,,,,,,,,,,,,,,,,,,,,,42.98166667,144.14027778, 42:58:54,144:08:25,0123301
276,1983,1,81521.0,113070,2,1,234,1,0,入鹿別川,イリシカヘ゛ツカ゛ワ,,入鹿別橋,イリシカヘ゛ツハ゛シ,,,,,,,,,,,,,,,,,,,,,,,,,,,,,,,,,,,,,,,,,,,,,,,,,,,,,,,,,42.59138889,141.87972222, 42:35:29,141:52:47,0123401
277,1983,1,81222.0,113080,2,1,186,1,1,厚真川,アツ゛マカ゛ワ,,浜厚真橋,ハマアツ゛マハ゛シ,,A,1.0,3.0,1981.0,7.0,20.0,,,,,,,,,,,,,,,1.0,3.0,,厚真川,アツ゛マカ゛ワ,,,,,,,,,,,,,,,,1.0,1.0,,,,,,,,,,,,,,42.61083333,141.82472222, 42:36:39,141:49:29,0118601
278,1983,1,,113090,2,1,191,51,0,小糸魚川,コイトイカ゛ワ,,糸井３８１番地の４３附近,イトイ  ３８１  ハ゛ンチ  ４３  フキン,,A,1.0,3.0,1981.0,7.0,20.0,,,,,,,,,,,,,,,,,,,,,,,,,,,,,,,,,,,,,,,,,,,,,,,,,,42.63861111,141.50527778, 42:38:19,141:30:19,0119151
279,1983,1,,113100,2,1,192,51,0,錦多峰川上流,ニシタツフ゜カ゛ワ  シ゛ヨウリユウ,,王子専水取水口下流２００ｍ,オウシ゛シユスイクチカリユウ  ２００Ｍ,,AA,1.0,3.0,1981.0,7.0,20.0,,,,,,,,,,,,,,,,,,,,,,,,,,,,,,,,,,,,,,,,,,,,,,,,,,42.65111111,141.47527778, 42:39:04,141:28:31,0119251
280,1983,1,,113110,2,1,194,51,0,覚生川,オホ゛ツフ゜カ゛ワ,,樽前１５９番地の１３附近,タルマエ  １５９  ハ゛ンチ  １３  フキン,,A,1.0,3.0,1981.0,7.0,20.0,,,,,,,,,,,,,,,,,,,,,,,,,,,,,,,,,,,,,,,,,,,,,,,,,,42.60416667,141.45250000, 42:36:15,141:27:09,0119451
281,1983,1,,113120,2,1,194,52,0,覚生川,オホ゛ツフ゜カ゛ワ,,王子専水取水口下流１００ｍ,オウシ゛シユスイクチカリユウ  １００Ｍ,,A,1.0,3.0,1981.0,7.0,20.0,,,,,,,,,,,,,,,,,,,,,,,,,,,,,,,,,,,,,,,,,,,,,,,,,,42.62305556,141.44861111, 42:37:23,141:26:55,0119452
282,1983,1,,113130,2,1,195,51,0,樽前川,タルマエカ゛ワ,,王子専水取水口,オウシ゛センスイシユスイクチ,,A,1.0,3.0,1981.0,7.0,20.0,,,,,,,,,,,,,,,,,,,,,,,,,,,,,,,,,,,,,,,,,,,,,,,,,,42.61638889,141.42416667, 42:36:59,141:25:27,0119551
283,1983,1,,113140,2,1,196,51,0,別々川,ヘ゛ツヘ゛ツカ゛ワ,,樽前３７１番地附近,タルマエ  ３７１  ハ゛ンチ  フキン,,A,1.0,3.0,1981.0,7.0,20.0,,,,,,,,,,,,,,,,,,,,,,,,,,,,,,,,,,,,,,,,,,,,,,,,,,42.60250000,141.39138889, 42:36:09,141:23:29,0119651
284,1983,1,,113150,2,1,241,1,0,オカシベツ川,オカシヘ゛ツカ゛ワ,,鉄道橋,テツト゛ウハ゛シ,,,,,,,,,,,,,,,,,,,,,,,,,,,,,,,,,,,,,,,,,,,,,,,,,,,,,,,,,42.42138889,141.10416667, 42:25:17,141:06:15,0124101
285,1983,1,81519.0,113160,2,1,242,1,0,気門別川,キモンヘ゛ツカ゛ワ,,館山橋,タテヤマハ゛シ,,,,,,,,,,,,,,,,,,,,,,,,,,,,,,,,,,,,,,,,,,,,,,,,,,,,,,,,,42.47611111,140.86083333, 42:28:34,140:51:39,0124201
286,1983,1,81519.0,113170,2,1,242,2,0,気門別川,キモンヘ゛ツカ゛ワ,,関内橋,セキナイハ゛シ,,,,,,,,,,,,,,,,,,,,,,,,,,,,,,,,,,,,,,,,,,,,,,,,,,,,,,,,,42.50361111,140.87472222, 42:30:13,140:52:29,0124202
287,1983,1,,113180,2,1,243,1,0,赤川,アカカ゛ワ,,赤川橋,アカカ゛ワハ゛シ,,,,,,,,,,,,,,,,,,,,,,,,,,,,,,,,,,,,,,,,,,,,,,,,,,,,,,,,,42.54583333,140.76750000, 42:32:45,140:46:03,0124301
288,1983,1,81519.0,113190,2,1,244,1,0,長万部川,オシヤマンヘ゛カ゛ワ,,旭橋,アサヒハ゛シ,,,,,,,,,,,,,,,,,,,,,,,,,,,,,,,,,,,,,,,,,,,,,,,,,,,,,,,,,42.51694444,140.38138889, 42:31:01,140:22:53,0124401
289,1983,1,81518.0,113200,2,1,245,1,0,鉛川,ナマリカ゛ワ,,鉛川橋（遊楽部川合流前）,ナマリカ゛ワハ゛シ,,,,,,,,,,,,,,,,,,,,,,,,,,,,,,,,,,,,,,,,,,,,,,,,,,,,,,,,,42.26416667,140.21138889, 42:15:51,140:12:41,0124501
290,1983,1,81517.0,113210,2,1,246,1,0,折戸川,オリトカ゛ワ,,折戸川橋,オリトカ゛ワハ゛シ,,,,,,,,,,,,,,,,,,,,,,,,,,,,,,,,,,,,,,,,,,,,,,,,,,,,,,,,,42.04583333,140.80916667, 42:02:45,140:48:33,0124601
291,1983,1,81516.0,113220,2,1,247,1,0,鮫川,サメカ゛ワ,,湯浜橋,ユノハマハ゛シ,,,,,,,,,,,,,,,,,,,,,,1.0,3.0,,鮫川,サメカ゛ワ,,,,,,,,,,,,,,,,1.0,1.0,,,,,,,,,,,,,,41.77500000,140.78638889, 41:46:30,140:47:11,0124701
292,1983,1,81516.0,113230,2,1,248,1,0,湯川,ユノカワ,,湯川橋,ユノカワハ゛シ,,,,,,,,,,,,,,,,,,,,,,1.0,3.0,,湯川,ユノカワ,,,,,,,,,,,,,,,,1.0,1.0,,,,,,,,,,,,,,41.78027778,140.79138889, 41:46:49,140:47:29,0124801
293,1983,1,81516.0,113240,2,1,248,2,0,湯川,ユノカワ,,香雪橋,コウセツハ゛シ,,,,,,,,,,,,,,,,,,,,,,1.0,3.0,,湯川,ユノカワ,,,,,,,,,,,,,,,,1.0,1.0,,,,,,,,,,,,,,41.78833333,140.79250000, 41:47:18,140:47:33,0124802
294,1983,1,81516.0,113250,2,1,249,1,0,湯沢川,ユノサワカ゛ワ,,湯沢橋,ユノサワハ゛シ,,,,,,,,,,,,,,,,,,,,,,1.0,3.0,,湯沢川,ユノサワカ゛ワ,,,,,,,,,,,,,,,,1.0,1.0,,,,,,,,,,,,,,41.78472222,140.79416667, 41:47:05,140:47:39,0124901
295,1983,1,81515.0,113260,2,1,250,1,0,知内川,シリウチカ゛ワ,,萩茶里橋,ハキ゛チヤリハ゛シ,,,,,,,,,,,,,,,,,,,,,,,,,,,,,,,,,,,,,,,,,,,,,,,,,,,,,,,,,41.59861111,140.32694444, 41:35:55,140:19:37,0125001
296,1983,1,81514.0,113270,2,1,251,1,0,石崎川,イシサ゛キカ゛ワ,,農業用水取水口,ノウキ゛ヨウヨウスイシユスイク゛チ,,,,,,,,,,,,,,,,,,,,,,,,,,,,,,,,,,,,,,,,,,,,,,,,,,,,,,,,,41.69027778,140.04972222, 41:41:25,140:02:59,0125101
297,1983,1,81514.0,113280,2,1,251,2,0,石崎川,イシサ゛キカ゛ワ,,小砂子川合流前（鉱山排水流入前）,チイサコ゛カ゛ワコ゛ウリユウマエ,,,,,,,,,,,,,,,,,,,,,,,,,,,,,,,,,,,,,,,,,,,,,,,,,,,,,,,,,41.67305556,140.07250000, 41:40:23,140:04:21,0125102
298,1983,1,81514.0,113290,2,1,252,1,0,天の川,アマノカ゛ワ,,小森大橋,コモリオオハシ,,,,,,,,,,,,,,,,,,,,,,,,,,,,,,,,,,,,,,,,,,,,,,,,,,,,,,,,,41.77527778,140.14472222, 41:46:31,140:08:41,0125201
299,1983,1,81514.0,113300,2,1,252,2,0,天の川,アマノカ゛ワ,,宮越橋,ミヤコシハ゛シ,,,,,,,,,,,,,,,,,,,,,,,,,,,,,,,,,,,,,,,,,,,,,,,,,,,,,,,,,41.76194444,140.18583333, 41:45:43,140:11:09,0125202
300,1983,1,81514.0,113310,2,1,253,1,0,厚志内川,アツシナイカ゛ワ,,農業用水取水口,ノウキ゛ヨウヨウスイシユスイク゛チ,,,,,,,,,,,,,,,,,,,,,,,,,,,,,,,,,,,,,,,,,,,,,,,,,,,,,,,,,41.75694444,140.16916667, 41:45:25,140:10:09,0125301
301,1983,1,81511.0,113320,2,1,254,1,0,堀株川,ホリカツフ゜カ゛ワ,,国富頭首工,クニトミトウシユコウ,,,,,,,,,,,,,,,,,,,,,,,,,,,,,,,,,,,,,,,,,,,,,,,,,,,,,,,,,42.98027778,140.64972222, 42:58:49,140:38:59,0125401
302,1983,1,81511.0,113330,2,1,254,2,0,堀株川,ホリカツフ゜カ゛ワ,,学橋,マナフ゛ハ゛シ,,,,,,,,,,,,,,,,,,,,,,,,,,,,,,,,,,,,,,,,,,,,,,,,,,,,,,,,,42.97861111,140.65305556, 42:58:43,140:39:11,0125402
303,1983,1,81511.0,113340,2,1,254,3,0,堀株川,ホリカツフ゜カ゛ワ,,１０号橋（セトセ川合流前）,１０  コ゛ウハ゛シ,,,,,,,,,,,,,,,,,,,,,,,,,,,,,,,,,,,,,,,,,,,,,,,,,,,,,,,,,42.97666667,140.66805556, 42:58:36,140:40:05,0125403
304,1983,1,81511.0,113350,2,1,255,1,0,島付内川,シマツケナイカ゛ワ,,島付内橋,シマツケナイハ゛シ,,,,,,,,,,,,,,,,,,,,,,,,,,,,,,,,,,,,,,,,,,,,,,,,,,,,,,,,,42.97750000,140.64083333, 42:58:39,140:38:27,0125501
305,1983,1,81511.0,113360,2,1,256,1,0,セトセ川,セトセカ゛ワ,,セトセ橋,セトセハ゛シ,,,,,,,,,,,,,,,,,,,,,,,,,,,,,,,,,,,,,,,,,,,,,,,,,,,,,,,,,42.97972222,140.66027778, 42:58:47,140:39:37,0125601
306,1983,1,81510.0,113370,2,1,257,1,0,湯内川,ユナイカ゛ワ,,湯内橋,ユナイハ゛シ,,,,,,,,,,,,,,,,,,,,,,,,,,,,,,,,,,,,,,,,,,,,,,,,,,,,,,,,,43.24583333,140.70694444, 43:14:45,140:42:25,0125701
307,1983,1,81510.0,113380,2,1,257,2,0,湯内川,ユナイカ゛ワ,,鉱山排水流入前,コウサ゛ンハイスイリユウニユウマエ,,,,,,,,,,,,,,,,,,,,,,,,,,,,,,,,,,,,,,,,,,,,,,,,,,,,,,,,,43.22638889,140.19472222, 43:13:35,140:11:41,0125702
308,1983,1,81510.0,113390,2,1,258,1,0,湯の沢川,ユノサワカ゛ワ,,湯の沢上流,ユノサワ  シ゛ヨウリユウ,,,,,,,,,,,,,,,,,,,,,,,,,,,,,,,,,,,,,,,,,,,,,,,,,,,,,,,,,43.21750000,140.69944444, 43:13:03,140:41:58,0125801
309,1983,1,81514.0,113400,2,1,259,1,0,小砂子川,チイサコ゛カ゛ワ,,小砂子橋（石崎川合流前）,チイサコ゛ハ゛シ,,,,,,,,,,,,,,,,,,,,,,,,,,,,,,,,,,,,,,,,,,,,,,,,,,,,,,,,,41.67972222,140.05250000, 41:40:47,140:03:09,0125901
310,1983,1,81525.0,113410,2,1,260,1,0,別途前川,ヘ゛ツトマエカ゛ワ,,ほしがうら川河口,ホシカ゛ウラカ゛ワカコウ,,,,,,,,,,,,,,,,,,,,,,,,,,,,,,,,,,,,,,,,,,,,,,,,,,,,,,,,,43.00777778,144.30777778, 43:00:28,144:18:28,0126001
311,1983,1,81525.0,113420,2,1,260,2,0,別途前川,ヘ゛ツトマエカ゛ワ,,野嵐橋,ノアラシハ゛シ,,,,,,,,,,,,,,,,,,,,,,,,,,,,,,,,,,,,,,,,,,,,,,,,,,,,,,,,,43.01277778,144.30722222, 43:00:46,144:18:26,0126002
312,1983,1,81525.0,113430,2,1,261,1,0,別途前川,ヘ゛ツトマエカ゛ワ,,りゅうじん川河口,リユウシ゛ンカ゛ワカコウ,,,,,,,,,,,,,,,,,,,,,,,,,,,,,,,,,,,,,,,,,,,,,,,,,,,,,,,,,43.00722222,144.29388889, 43:00:26,144:17:38,0126101
313,1983,1,81525.0,113440,2,1,262,1,0,別途前川,ヘ゛ツトマエカ゛ワ,,別途前川河口,ヘ゛ツトマエカ゛ワカコウ,,,,,,,,,,,,,,,,,,,,,,,,,,,,,,,,,,,,,,,,,,,,,,,,,,,,,,,,,43.00555556,144.32138889, 43:00:20,144:19:17,0126201
314,1983,1,81007.0,113460,2,1,4,2,1,石狩川中流下流,イシカリカ゛ワ  チユウリユウ  カリユウ,,砂川橋,スナカ゛ワハ゛シ,,B,2.0,1.0,1970.0,9.0,1.0,,,,,,,,,,,,,,,1.0,3.0,,石狩川中流下流,イシカリカ゛ワ  チユウリユウ  カリユウ,,,,,,,,,,,,,,,,1.0,1.0,,,,,,,,,,01R0042,,,,43.50444444,141.89722222, 43:30:16,141:53:50,0100402
315,1983,1,81007.0,113470,2,1,144,2,1,千歳川下流,チトセカ゛ワ  カリユウ,,新江別橋,シンエヘ゛ツハ゛シ,,A,1.0,3.0,1974.0,5.0,14.0,,,,,,,,,,,,,,,1.0,3.0,,千歳川下流,チトセカ゛ワ  カリユウ,,,,,,,,,,,,,,,,1.0,1.0,,,,,,,,,,01R010,,,,43.11722222,141.55777778, 43:07:02,141:33:28,0114402
316,1983,1,81007.0,113480,2,1,148,51,2,豊平川下流,トヨヒラカ゛ワ  カリユウ,,雁来（雁来水位観測所）,カリキ  （  カリキスイイカンソクシヨ  ）,,B,3.0,3.0,1974.0,5.0,14.0,,,,,,,,,,,,,,,,,,,,,,,,,,,,,,,,,,,,,,,,,,,,,,,,,,43.07305556,141.40250000, 43:04:23,141:24:09,0114851
317,1983,1,,113490,2,1,148,55,2,豊平川下流,トヨヒラカ゛ワ  カリユウ,,角山橋,カクヤマハ゛シ,,B,3.0,3.0,1974.0,5.0,14.0,,,,,,,,,,,,,,,1.0,3.0,,豊平川下流,トヨヒラカ゛ワ  カリユウ,,,,,,,,,,,,,,,,1.0,1.0,,,,,,,,,,,,,,43.11916667,141.47138889, 43:07:09,141:28:17,0114855
318,1983,1,81013.0,113500,2,1,174,2,1,音更川上流,オトフケカ゛ワ  シ゛ヨウリユウ,,ぼくすい橋,ホ゛クスイハ゛シ,,AA,1.0,3.0,1975.0,4.0,1.0,,,,,,,,,,,,,,,,,,,,,,,,,,,,,,,,,,,,,,,,,,,,,,,,,,43.31194444,143.29611111, 43:18:43,143:17:46,0117402
319,1983,1,81221.0,113510,2,1,188,1,1,勇払川上流,ユウフツカ゛ワシ゛ヨウリユウ,,夕振大橋,ユウフ゛リオオハシ,,AA,1.0,3.0,1981.0,7.0,20.0,,,,,,,,,,,,,,,,,,,,,,,,,,,,,,,,,,,,,,,,,,,,,,,,,,42.68638889,141.67916667, 42:41:11,141:40:45,0118801
320,1983,1,81221.0,113520,2,1,189,1,1,勇払川下流,ユウフツカ゛ワカリユウ,,沼の端橋,ヌマノハタハ゛シ,,A,1.0,3.0,1981.0,7.0,20.0,,,,,,,,,,,,,,,,,,,,,,,,,,,,,,,,,,,,,,,,,,,,,,,,,,42.68111111,141.71416667, 42:40:52,141:42:51,0118901
321,1983,1,81221.0,113530,2,1,187,51,2,安平川,アヒ゛ラカ゛ワ,,上岡橋,ウエオカハ゛シ,,A,1.0,3.0,1981.0,7.0,20.0,,,,,,,,,,,,,,,,,,,,,,,,,,,,,,,,,,,,,,,,,,,,,,,,,,42.84222222,141.82222222, 42:50:32,141:49:20,0118751
322,1983,1,81520.0,113540,2,1,190,51,2,有珠川,ウスカ゛ワ,,松風町２番地の無名橋,マツカセ゛チヨウ２ハ゛ンチノムメイハ゛シ,,A,1.0,3.0,1981.0,7.0,20.0,,,,,,,,,,,,,,,,,,,,,,,,,,,,,,,,,,,,,,,,,,,,,,,,,,42.63833333,141.55666667, 42:38:18,141:33:24,0119051
323,1983,1,81222.0,113550,2,1,186,2,1,厚真川,アツ゛マカ゛ワ,,厚真新橋,アツ゛マシンハ゛シ,,A,1.0,3.0,1981.0,7.0,20.0,,,,,,,,,,,,,,,,,,,,,,,,,,,,,,,,,,,,,,,,,,,,,,,,,,42.72444444,141.88250000, 42:43:28,141:52:57,0118602
324,1983,1,81222.0,113560,2,1,186,51,2,厚真川,アツ゛マカ゛ワ,,豊川橋,トヨカワハ゛シ,,A,1.0,3.0,1981.0,7.0,20.0,,,,,,,,,,,,,,,,,,,,,,,,,,,,,,,,,,,,,,,,,,,,,,,,,,42.75611111,141.97194444, 42:45:22,141:58:19,0118651
326,1983,1,81010.0,113610,2,1,62,51,2,鵡川下流,ムカワ  カリユウ,,穂別橋,ホヘ゛ツハ゛シ,,A,2.0,3.0,1972.0,4.0,1.0,,,,,,,,,,,,,,,,,,,,,,,,,,,,,,,,,,,,,,,,,,,,,,,,,,42.76138889,142.13583333, 42:45:41,142:08:09,0106251
327,1983,1,81516.0,113620,2,1,247,2,0,鮫川,サメカ゛ワ,,湯倉橋,ユクラハ゛シ,,,,,,,,,,,,,,,,,,,,,,1.0,3.0,,鮫川,サメカ゛ワ,,,,,,,,,,,,,,,,1.0,1.0,,,,,,,,,,,,,,41.78305556,140.78527778, 41:46:59,140:47:07,0124702
328,1983,1,81221.0,113630,2,1,197,1,1,美々川,ヒ゛ヒ゛カ゛ワ,,国鉄橋梁上流部,コクテツキヨウリヨウシ゛ヨウリユウフ゛,,A,1.0,3.0,1982.0,3.0,4.0,,,,,,,,,,,,,,,1.0,3.0,,美々川,ヒ゛ヒ゛カ゛ワ,,,,,,,,,,,,,,,,1.0,1.0,,,,,,,,,,,,,,42.68361111,141.71861111, 42:41:01,141:43:07,0119701
329,1983,1,81221.0,113640,2,1,197,2,1,美々川,ヒ゛ヒ゛カ゛ワ,,うえなえ橋,ウエナエハ゛シ,,A,1.0,3.0,1982.0,3.0,4.0,,,,,,,,,,,,,,,1.0,3.0,,美々川,ヒ゛ヒ゛カ゛ワ,,,,,,,,,,,,,,,,1.0,1.0,,,,,,,,,,,,,,42.72333333,141.71083333, 42:43:24,141:42:39,0119702
330,1983,1,81221.0,113650,2,1,197,51,2,美々川,ヒ゛ヒ゛カ゛ワ,,ウトナイ沼Ｓｔ‐１,ウトナイヌマ  ＳＴ−１,,A,1.0,3.0,1982.0,3.0,4.0,,,,,,,,,,,,,,,1.0,3.0,,美々川,ヒ゛ヒ゛カ゛ワ,,,,,,,,,,,,,,,,1.0,1.0,,,,,,,,,,,,,,42.70000000,142.69888889, 42:42:00,142:41:56,0119751
331,1983,1,81221.0,113660,2,1,197,52,2,美々川,ヒ゛ヒ゛カ゛ワ,,ウトナイ沼Ｓｔ‐２,ウトナイヌマ  ＳＴ−２,,A,1.0,3.0,1982.0,3.0,4.0,,,,,,,,,,,,,,,1.0,3.0,,美々川,ヒ゛ヒ゛カ゛ワ,,,,,,,,,,,,,,,,1.0,1.0,,,,,,,,,,,,,,42.70000000,142.71277778, 42:42:00,142:42:46,0119752
332,1983,1,81221.0,113670,2,1,197,53,2,美々川,ヒ゛ヒ゛カ゛ワ,,ウトナイ沼Ｓｔ‐３,ウトナイヌマ  ＳＴ−３,,A,1.0,3.0,1982.0,3.0,4.0,,,,,,,,,,,,,,,1.0,3.0,,美々川,ヒ゛ヒ゛カ゛ワ,,,,,,,,,,,,,,,,1.0,1.0,,,,,,,,,,,,,,42.70111111,141.72194444, 42:42:04,141:43:19,0119753
333,1983,1,81221.0,113680,2,1,197,54,2,美々川,ヒ゛ヒ゛カ゛ワ,,御前水橋,コ゛セ゛ンスイハ゛シ,,A,1.0,3.0,1982.0,3.0,4.0,,,,,,,,,,,,,,,1.0,3.0,,美々川,ヒ゛ヒ゛カ゛ワ,,,,,,,,,,,,,,,,1.0,1.0,,,,,,,,,,,,,,42.76638889,141.72138889, 42:45:59,141:43:17,0119754
334,1983,1,81007.0,113790,1,1,121,52,2,新川下流,シンカワ  カリユウ,,稲積橋,イナス゛ミハ゛シ,,E,3.0,3.0,1973.0,3.0,15.0,,,,,,,,,,,,,,,1.0,3.0,,新川下流,シンカワ  カリユウ,,,,,,,,,,,,,,,,1.0,1.0,,,,,,,,,,,,,,43.11722222,141.28638889, 43:07:02,141:17:11,0112152
335,1983,1,,113800,1,1,265,1,0,近文オホーツナイガワ,チカフ゛ミオホ−ツナイカ゛ワ,,第８３号橋,タ゛イ  ８３  コ゛ウハ゛シ,,,,,,,,,,,,,,,,,,,,,,,,,,,,,,,,,,,,,,,,,,,,,,,,,,,,,,,,,43.78333333,142.33805556, 43:47:00,142:20:17,0126501
336,1983,2,,120010,2,1,501,1,4,網走湖,アハ゛シリコ,,Ｓｔ‐２（湖心）,ＳＴ−２,,A,1.0,1.0,1971.0,5.0,25.0,,,,,,,,,,,,,,,1.0,3.0,,網走湖,アハ゛シリコ,,,,,,,,,,,,,,,,1.0,1.0,,,,,,,,,,01L502,,,,43.97194444,144.17722222, 43:58:19,144:10:38,0150101
337,1983,2,,120020,2,1,501,2,4,網走湖,アハ゛シリコ,,Ｓｔ‐３（湖心方位３０度２５００ｍ）,ＳＴ−３,,A,1.0,1.0,1971.0,5.0,25.0,,,,,,,,,,,,,,,1.0,3.0,,網走湖,アハ゛シリコ,,,,,,,,,,,,,,,,1.0,1.0,,,,,,,,,,01L503,,,,43.99138889,144.19361111, 43:59:29,144:11:37,0150102
338,1983,2,,120030,2,1,501,51,5,網走湖,アハ゛シリコ,,Ｓｔ‐１（流入口沖５０ｍ）,ＳＴ−１,,A,1.0,1.0,1971.0,5.0,25.0,,,,,,,,,,,,,,,1.0,3.0,,網走湖,アハ゛シリコ,,,,,,,,,,,,,,,,1.0,1.0,,,,,,,,,,,,,,43.92861111,144.16555556, 43:55:43,144:09:56,0150151
339,1983,2,,120040,2,1,501,52,5,網走湖,アハ゛シリコ,,Ｓｔ‐４（流出口沖１００ｍ）,ＳＴ−４,,A,1.0,1.0,1971.0,5.0,25.0,,,,,,,,,,,,,,,1.0,3.0,,網走湖,アハ゛シリコ,,,,,,,,,,,,,,,,1.0,1.0,,,,,,,,,,,,,,44.00111111,144.22333333, 44:00:04,144:13:24,0150152
340,1983,2,,120050,2,1,502,1,4,支邃湖,シコツコ,,Ｓｔ‐１,ＳＴ−１,,AA,1.0,3.0,1972.0,4.0,1.0,,,,,,,,,,,,,,,1.0,3.0,,支笏湖,シコツコ,,,,,,,,,,,,,,,,1.0,1.0,,,,,,,,,,01L001,,,,42.76638889,141.35805556, 42:45:59,141:21:29,0150201
341,1983,2,,120060,2,1,502,2,4,支邃湖,シコツコ,,Ｓｔ‐２,ＳＴ−２,,AA,1.0,3.0,1972.0,4.0,1.0,,,,,,,,,,,,,,,1.0,3.0,,支笏湖,シコツコ,,,,,,,,,,,,,,,,1.0,1.0,,,,,,,,,,01L002,,,,42.74194444,141.30083333, 42:44:31,141:18:03,0150202
342,1983,2,,120070,2,1,502,51,5,支邃湖,シコツコ,,Ｓｔ‐３,ＳＴ−３,,AA,1.0,3.0,1972.0,4.0,1.0,,,,,,,,,,,,,,,,,,,,,,,,,,,,,,,,,,,,,,,,,,,,,,,,,,42.72833333,141.26638889, 42:43:42,141:15:59,0150251
343,1983,2,,120080,2,1,502,52,5,支邃湖,シコツコ,,Ｓｔ‐４,ＳＴ−４,,AA,1.0,3.0,1972.0,4.0,1.0,,,,,,,,,,,,,,,,,,,,,,,,,,,,,,,,,,,,,,,,,,,,,,,,,,42.77138889,141.40194444, 42:46:17,141:24:07,0150252
344,1983,2,,120090,2,1,502,53,5,支邃湖,シコツコ,,Ｓｔ‐５,ＳＴ−５,,AA,1.0,3.0,1972.0,4.0,1.0,,,,,,,,,,,,,,,,,,,,,,,,,,,,,,,,,,,,,,,,,,,,,,,,,,42.77972222,141.31305556, 42:46:47,141:18:47,0150253
345,1983,2,,120100,2,1,502,54,5,支邃湖,シコツコ,,Ｓｔ‐６,ＳＴ−６,,AA,1.0,3.0,1972.0,4.0,1.0,,,,,,,,,,,,,,,,,,,,,,,,,,,,,,,,,,,,,,,,,,,,,,,,,,42.76916667,141.26805556, 42:46:09,141:16:05,0150254
346,1983,2,,120110,2,1,503,1,4,洞爺湖,トウヤコ,,Ｓｔ‐１,ＳＴ−１,,AA,3.0,3.0,1972.0,4.0,1.0,2.0,,,,,,,,,,,,,,1.0,3.0,,洞爺湖,トウヤコ,,,,,,,,,,,,,,,,1.0,1.0,,,,,,,,,,01L101,,,,42.63027778,140.84250000, 42:37:49,140:50:33,0150301
347,1983,2,,120120,2,1,503,2,4,洞爺湖,トウヤコ,,Ｓｔ‐２,ＳＴ−２,,AA,3.0,3.0,1972.0,4.0,1.0,2.0,,,,,,,,,,,,,,1.0,3.0,,洞爺湖,トウヤコ,,,,,,,,,,,,,,,,1.0,1.0,,,,,,,,,,01L102,,,,42.60250000,140.88638889, 42:36:09,140:53:11,0150302
348,1983,2,,120130,2,1,503,3,4,洞爺湖,トウヤコ,,Ｓｔ‐３,ＳＴ−３,,AA,3.0,3.0,1972.0,4.0,1.0,2.0,,,,,,,,,,,,,,1.0,3.0,,洞爺湖,トウヤコ,,,,,,,,,,,,,,,,1.0,1.0,,,,,,,,,,01L103,,,,42.57750000,140.82972222, 42:34:39,140:49:47,0150303
349,1983,2,,120140,2,1,503,51,5,洞爺湖,トウヤコ,,Ｓｔ‐４,ＳＴ−４,,AA,3.0,3.0,1972.0,4.0,1.0,2.0,,,,,,,,,,,,,,1.0,3.0,,洞爺湖,トウヤコ,,,,,,,,,,,,,,,,1.0,1.0,,,,,,,,,,,,,,42.64555556,140.83416667, 42:38:44,140:50:03,0150351
350,1983,2,,120150,2,1,503,52,5,洞爺湖,トウヤコ,,Ｓｔ‐５,ＳＴ−５,,AA,3.0,3.0,1972.0,4.0,1.0,2.0,,,,,,,,,,,,,,1.0,3.0,,洞爺湖,トウヤコ,,,,,,,,,,,,,,,,1.0,1.0,,,,,,,,,,,,,,42.61611111,140.91138889, 42:36:58,140:54:41,0150352
351,1983,2,,120160,2,1,503,53,5,洞爺湖,トウヤコ,,Ｓｔ‐６,ＳＴ−６,,AA,3.0,3.0,1972.0,4.0,1.0,2.0,,,,,,,,,,,,,,1.0,3.0,,洞爺湖,トウヤコ,,,,,,,,,,,,,,,,1.0,1.0,,,,,,,,,,,,,,42.56472222,140.88416667, 42:33:53,140:53:03,0150353
352,1983,2,,120170,2,1,503,54,5,洞爺湖,トウヤコ,,Ｓｔ‐７,ＳＴ−７,,AA,3.0,3.0,1972.0,4.0,1.0,2.0,,,,,,,,,,,,,,1.0,3.0,,洞爺湖,トウヤコ,,,,,,,,,,,,,,,,1.0,1.0,,,,,,,,,,,,,,42.56833333,140.81916667, 42:34:06,140:49:09,0150354
353,1983,2,,120180,2,1,504,1,4,大沼,オオヌマ,,Ｓｔ‐１,ＳＴ−１,,A,1.0,3.0,1972.0,4.0,1.0,,,,,,,,,,,,,,,1.0,3.0,,大沼,オオヌマ,,,,,,,,,,,,,,,,1.0,1.0,,,,,,,,,,01L201,,,,41.99638889,140.68833333, 41:59:47,140:41:18,0150401
354,1983,2,,120190,2,1,504,2,4,大沼,オオヌマ,,Ｓｔ‐２,ＳＴ−２,,A,1.0,3.0,1972.0,4.0,1.0,,,,,,,,,,,,,,,1.0,3.0,,大沼,オオヌマ,,,,,,,,,,,,,,,,1.0,1.0,,,,,,,,,,01L202,,,,41.97472222,140.66361111, 41:58:29,140:39:49,0150402
355,1983,2,,120200,2,1,504,51,5,大沼,オオヌマ,,Ｓｔ‐３,ＳＴ−３,,A,1.0,3.0,1972.0,4.0,1.0,,,,,,,,,,,,,,,1.0,3.0,,大沼,オオヌマ,,,,,,,,,,,,,,,,1.0,1.0,,,,,,,,,,,,,,42.01305556,140.71194444, 42:00:47,140:42:43,0150451
356,1983,2,,120210,2,1,504,52,5,大沼,オオヌマ,,Ｓｔ‐４,ＳＴ−４,,A,1.0,3.0,1972.0,4.0,1.0,,,,,,,,,,,,,,,1.0,3.0,,大沼,オオヌマ,,,,,,,,,,,,,,,,1.0,1.0,,,,,,,,,,,,,,41.99694444,140.67277778, 41:59:49,140:40:22,0150452
357,1983,2,,120220,2,1,504,53,5,大沼,オオヌマ,,Ｓｔ‐５,ＳＴ−５,,A,1.0,3.0,1972.0,4.0,1.0,,,,,,,,,,,,,,,1.0,3.0,,大沼,オオヌマ,,,,,,,,,,,,,,,,1.0,1.0,,,,,,,,,,,,,,41.98944444,140.66805556, 41:59:22,140:40:05,0150453
358,1983,2,,120230,2,1,504,54,5,大沼,オオヌマ,,Ｓｔ‐６,ＳＴ−６,,A,1.0,3.0,1972.0,4.0,1.0,,,,,,,,,,,,,,,1.0,3.0,,大沼,オオヌマ,,,,,,,,,,,,,,,,1.0,1.0,,,,,,,,,,,,,,41.98638889,140.67416667, 41:59:11,140:40:27,0150454
359,1983,2,,120240,2,1,505,1,4,阿寒湖,アカンコ,,Ｓｔ‐１,ＳＴ−１,,AA,1.0,3.0,1972.0,4.0,1.0,,,,,,,,,,,,,,,1.0,3.0,,阿寒湖,アカンコ,,,,,,,,,,,,,,,,1.0,1.0,,,,,,,,,,01L301,,,,43.44305556,144.08916667, 43:26:35,144:05:21,0150501
360,1983,2,,120250,2,1,505,2,4,阿寒湖,アカンコ,,Ｓｔ‐２,ＳＴ−２,,AA,1.0,3.0,1972.0,4.0,1.0,,,,,,,,,,,,,,,1.0,3.0,,阿寒湖,アカンコ,,,,,,,,,,,,,,,,1.0,1.0,,,,,,,,,,01L302,,,,43.45444444,144.10083333, 43:27:16,144:06:03,0150502
361,1983,2,,120260,2,1,505,3,4,阿寒湖,アカンコ,,Ｓｔ‐３,ＳＴ−３,,AA,1.0,3.0,1972.0,4.0,1.0,,,,,,,,,,,,,,,1.0,3.0,,阿寒湖,アカンコ,,,,,,,,,,,,,,,,1.0,1.0,,,,,,,,,,01L303,,,,43.46444444,144.11250000, 43:27:52,144:06:45,0150503
362,1983,2,,120270,2,1,505,51,5,阿寒湖,アカンコ,,Ｓｔ‐４,ＳＴ−４,,AA,1.0,3.0,1972.0,4.0,1.0,,,,,,,,,,,,,,,1.0,3.0,,阿寒湖,アカンコ,,,,,,,,,,,,,,,,1.0,1.0,,,,,,,,,,,,,,43.47750000,144.12194444, 43:28:39,144:07:19,0150551
363,1983,2,,120280,2,1,505,52,5,阿寒湖,アカンコ,,Ｓｔ‐５,ＳＴ−５,,AA,1.0,3.0,1972.0,4.0,1.0,,,,,,,,,,,,,,,1.0,3.0,,阿寒湖,アカンコ,,,,,,,,,,,,,,,,1.0,1.0,,,,,,,,,,,,,,43.45638889,144.06055556, 43:27:23,144:03:38,0150552
364,1983,2,,120290,2,1,505,53,5,阿寒湖,アカンコ,,Ｓｔ‐６,ＳＴ−６,,AA,1.0,3.0,1972.0,4.0,1.0,,,,,,,,,,,,,,,1.0,3.0,,阿寒湖,アカンコ,,,,,,,,,,,,,,,,1.0,1.0,,,,,,,,,,,,,,43.43527778,144.09611111, 43:26:07,144:05:46,0150553
365,1983,2,,120300,2,1,505,54,5,阿寒湖,アカンコ,,Ｓｔ‐７,ＳＴ−７,,AA,1.0,3.0,1972.0,4.0,1.0,,,,,,,,,,,,,,,1.0,3.0,,阿寒湖,アカンコ,,,,,,,,,,,,,,,,1.0,1.0,,,,,,,,,,,,,,43.43277778,144.13777778, 43:25:58,144:08:16,0150554
366,1983,2,,120310,2,1,506,1,4,屈斜路湖,クツシヤロコ,,Ｓｔ‐１,ＳＴ−１,,AA,1.0,3.0,1973.0,3.0,15.0,3.0,,,,,,,,,,,,,,1.0,3.0,,屈斜路湖,クツシヤロコ,,,,,,,,,,,,,,,,1.0,1.0,,,,,,,,,,01L401,,,,43.64527778,144.34333333, 43:38:43,144:20:36,0150601
367,1983,2,,120320,2,1,506,2,4,屈斜路湖,クツシヤロコ,,Ｓｔ‐２,ＳＴ−２,,AA,1.0,3.0,1973.0,3.0,15.0,3.0,,,,,,,,,,,,,,1.0,3.0,,屈斜路湖,クツシヤロコ,,,,,,,,,,,,,,,,1.0,1.0,,,,,,,,,,01L402,,,,43.60166667,144.32111111, 43:36:06,144:19:16,0150602
368,1983,2,,120330,2,1,506,51,5,屈斜路湖,クツシヤロコ,,Ｓｔ‐３,ＳＴ−３,,AA,1.0,3.0,1973.0,3.0,15.0,3.0,,,,,,,,,,,,,,,,,,,,,,,,,,,,,,,,,,,,,,,,,,,,,,,,,43.60222222,144.26250000, 43:36:08,144:15:45,0150651
369,1983,2,,120340,2,1,506,52,5,屈斜路湖,クツシヤロコ,,Ｓｔ‐４,ＳＴ−４,,AA,1.0,3.0,1973.0,3.0,15.0,3.0,,,,,,,,,,,,,,,,,,,,,,,,,,,,,,,,,,,,,,,,,,,,,,,,,43.65361111,144.41361111, 43:39:13,144:24:49,0150652
370,1983,2,,120350,2,1,506,53,5,屈斜路湖,クツシヤロコ,,Ｓｔ‐５,ＳＴ−５,,AA,1.0,3.0,1973.0,3.0,15.0,3.0,,,,,,,,,,,,,,,,,,,,,,,,,,,,,,,,,,,,,,,,,,,,,,,,,43.56000000,144.33888889, 43:33:36,144:20:20,0150653
371,1983,3,,130010,2,1,601,1,7,サロマ湖,サロマコ,,Ｓｔ‐１,ＳＴ−１,,A,1.0,3.0,1973.0,3.0,15.0,,,,,,,,,,,,,,,1.0,3.0,,サロマ湖,サロマコ,,,,,,,,,,,,,,,,2.0,1.0,,,,,,,,,,01S901,,,,44.16361111,143.74388889, 44:09:49,143:44:38,0160101
372,1983,3,,130020,2,1,601,2,7,サロマ湖,サロマコ,,Ｓｔ‐２,ＳＴ−２,,A,1.0,3.0,1973.0,3.0,15.0,,,,,,,,,,,,,,,1.0,3.0,,サロマ湖,サロマコ,,,,,,,,,,,,,,,,2.0,1.0,,,,,,,,,,01S902,,,,44.11555556,143.80444444, 44:06:56,143:48:16,0160102
373,1983,3,,130030,2,1,601,3,7,サロマ湖,サロマコ,,Ｓｔ‐３,ＳＴ−３,,A,1.0,3.0,1973.0,3.0,15.0,,,,,,,,,,,,,,,1.0,3.0,,サロマ湖,サロマコ,,,,,,,,,,,,,,,,2.0,1.0,,,,,,,,,,01S903,,,,44.11583333,143.93000000, 44:06:57,143:55:48,0160103
374,1983,3,,130040,2,1,601,51,8,サロマ湖,サロマコ,,Ｓｔ‐４,ＳＴ−４,,A,1.0,3.0,1973.0,3.0,15.0,,,,,,,,,,,,,,,1.0,3.0,,サロマ湖,サロマコ,,,,,,,,,,,,,,,,2.0,1.0,,,,,,,,,,,,,,44.07972222,143.93666667, 44:04:47,143:56:12,0160151
375,1983,3,,130050,2,1,601,52,8,サロマ湖,サロマコ,,Ｓｔ‐５,ＳＴ−５,,A,1.0,3.0,1973.0,3.0,15.0,,,,,,,,,,,,,,,1.0,3.0,,サロマ湖,サロマコ,,,,,,,,,,,,,,,,2.0,1.0,,,,,,,,,,,,,,44.12777778,143.83888889, 44:07:40,143:50:20,0160152
376,1983,3,,130060,2,1,601,53,8,サロマ湖,サロマコ,,Ｓｔ‐６,ＳＴ−６,,A,1.0,3.0,1973.0,3.0,15.0,,,,,,,,,,,,,,,1.0,3.0,,サロマ湖,サロマコ,,,,,,,,,,,,,,,,2.0,1.0,,,,,,,,,,,,,,44.10972222,143.73277778, 44:06:35,143:43:58,0160153
377,1983,3,,130070,2,1,601,54,8,サロマ湖,サロマコ,,Ｓｔ‐７,ＳＴ−７,,A,1.0,3.0,1973.0,3.0,15.0,,,,,,,,,,,,,,,1.0,3.0,,サロマ湖,サロマコ,,,,,,,,,,,,,,,,2.0,1.0,,,,,,,,,,,,,,44.17916667,143.78444444, 44:10:45,143:47:04,0160154
378,1983,3,,130080,2,1,602,1,7,能取湖,ノトリコ,,Ｓｔ‐１,ＳＴ−１,,B,1.0,3.0,1973.0,3.0,15.0,,,,,,,,,,,,,,,1.0,3.0,,能取湖,ノトリコ,,,,,,,,,,,,,,,,2.0,1.0,,,,,,,,,,01S931,,,,44.02111111,144.12222222, 44:01:16,144:07:20,0160201
379,1983,3,,130090,2,1,602,2,7,能取湖,ノトリコ,,Ｓｔ‐２,ＳＴ−２,,B,1.0,3.0,1973.0,3.0,15.0,,,,,,,,,,,,,,,1.0,3.0,,能取湖,ノトリコ,,,,,,,,,,,,,,,,2.0,1.0,,,,,,,,,,01S932,,,,44.06611111,144.14388889, 44:03:58,144:08:38,0160202
380,1983,3,,130110,2,1,602,52,8,能取湖,ノトリコ,,Ｓｔ‐４,ＳＴ−４,,B,1.0,3.0,1973.0,3.0,15.0,,,,,,,,,,,,,,,1.0,3.0,,能取湖,ノトリコ,,,,,,,,,,,,,,,,2.0,1.0,,,,,,,,,,,,,,44.01694444,144.11888889, 44:01:01,144:07:08,0160252
381,1983,3,,130120,2,1,602,53,8,能取湖,ノトリコ,,Ｓｔ‐５,ＳＴ−５,,B,1.0,3.0,1973.0,3.0,15.0,,,,,,,,,,,,,,,1.0,3.0,,能取湖,ノトリコ,,,,,,,,,,,,,,,,2.0,1.0,,,,,,,,,,,,,,44.02833333,144.17055556, 44:01:42,144:10:14,0160253
382,1983,3,,130130,2,1,602,54,8,能取湖,ノトリコ,,Ｓｔ‐６,ＳＴ−６,,B,1.0,3.0,1973.0,3.0,15.0,,,,,,,,,,,,,,,1.0,3.0,,能取湖,ノトリコ,,,,,,,,,,,,,,,,2.0,1.0,,,,,,,,,,,,,,44.08972222,144.11972222, 44:05:23,144:07:11,0160254
383,1983,3,,130140,2,1,602,55,8,能取湖,ノトリコ,,Ｓｔ‐７,ＳＴ−７,,B,1.0,3.0,1973.0,3.0,15.0,,,,,,,,,,,,,,,1.0,3.0,,能取湖,ノトリコ,,,,,,,,,,,,,,,,2.0,1.0,,,,,,,,,,,,,,44.10027778,144.18472222, 44:06:01,144:11:05,0160255
384,1983,3,,130150,2,1,603,1,7,厚岸湖,アツケシコ,,Ｓｔ‐１,ＳＴ−１,,B,1.0,3.0,1973.0,3.0,15.0,,,,,,,,,,,,,,,1.0,3.0,,厚岸湖,アツケシコ,,,,,,,,,,,,,,,,2.0,1.0,,,,,,,,,,01S961,,,,43.04027778,144.87472222, 43:02:25,144:52:29,0160301
385,1983,3,,130160,2,1,603,2,7,厚岸湖,アツケシコ,,Ｓｔ‐２,ＳＴ−２,,B,1.0,3.0,1973.0,3.0,15.0,,,,,,,,,,,,,,,1.0,3.0,,厚岸湖,アツケシコ,,,,,,,,,,,,,,,,2.0,1.0,,,,,,,,,,01S962,,,,43.03916667,144.90055556, 43:02:21,144:54:02,0160302
386,1983,3,,130170,2,1,603,51,8,厚岸湖,アツケシコ,,Ｓｔ‐３,ＳＴ−３,,B,1.0,3.0,1973.0,3.0,15.0,,,,,,,,,,,,,,,1.0,3.0,,厚岸湖,アツケシコ,,,,,,,,,,,,,,,,2.0,1.0,,,,,,,,,,,,,,43.03888889,144.92500000, 43:02:20,144:55:30,0160351
387,1983,3,,130180,2,1,603,54,8,厚岸湖,アツケシコ,,Ｓｔ‐６,ＳＴ−６,,B,1.0,3.0,1973.0,3.0,15.0,,,,,,,,,,,,,,,1.0,3.0,,厚岸湖,アツケシコ,,,,,,,,,,,,,,,,2.0,1.0,,,,,,,,,,,,,,43.04750000,144.85111111, 43:02:51,144:51:04,0160354
388,1983,3,,130210,2,1,604,1,7,小樽海域（１）,オタルカイイキ  （１）,,Ｓｔ‐４,ＳＴ−４,,C,1.0,3.0,1973.0,3.0,15.0,,,,,,,,,,,,,,,1.0,3.0,,小樽海域（１）,オタルカイイキ  （１）,,,,,,,,,,,,,,,,1.0,1.0,,,,,,,,,,01S004,,,,43.20250000,141.01305556, 43:12:09,141:00:47,0160401
389,1983,3,,130220,2,1,604,2,7,小樽海域（１）,オタルカイイキ  （１）,,Ｓｔ‐５,ＳＴ−５,,C,1.0,3.0,1973.0,3.0,15.0,,,,,,,,,,,,,,,1.0,3.0,,小樽海域（１）,オタルカイイキ  （１）,,,,,,,,,,,,,,,,1.0,1.0,,,,,,,,,,01S005,,,,43.19277778,141.02138889, 43:11:34,141:01:17,0160402
390,1983,3,,130230,2,1,604,51,8,小樽海域（１）,オタルカイイキ  （１）,,Ｓｔ‐７,ＳＴ−７,,C,1.0,3.0,1973.0,3.0,15.0,,,,,,,,,,,,,,,,,,,,,,,,,,,,,,,,,,,,,,,,,,,,,,,,,,43.19083333,141.02805556, 43:11:27,141:01:41,0160451
391,1983,3,,130240,2,1,605,1,7,小樽海域（２）,オタルカイイキ  （２）,,Ｓｔ‐３,ＳＴ−３,,C,1.0,3.0,1973.0,3.0,15.0,,,,,,,,,,,,,,,1.0,3.0,,小樽海域（２）,オタルカイイキ  （２）,,,,,,,,,,,,,,,,1.0,1.0,,,,,,,,,,01S003,,,,43.21361111,141.01583333, 43:12:49,141:00:57,0160501
392,1983,3,,130250,2,1,606,1,7,小樽海域（３）,オタルカイイキ  （３）,,Ｓｔ‐１,ＳＴ−１,,A,1.0,3.0,1973.0,3.0,15.0,,,,,,,,,,,,,,,1.0,3.0,,小樽海域（３）,オタルカイイキ  （３）,,,,,,,,,,,,,,,,1.0,1.0,,,,,,,,,,01S001,,,,43.21083333,141.02416667, 43:12:39,141:01:27,0160601
393,1983,3,,130260,2,1,606,2,7,小樽海域（３）,オタルカイイキ  （３）,,Ｓｔ‐２,ＳＴ−２,,A,1.0,3.0,1973.0,3.0,15.0,,,,,,,,,,,,,,,1.0,3.0,,小樽海域（３）,オタルカイイキ  （３）,,,,,,,,,,,,,,,,1.0,1.0,,,,,,,,,,01S002,,,,43.19416667,141.03805556, 43:11:39,141:02:17,0160602
394,1983,3,,130270,2,1,606,51,8,小樽海域（３）,オタルカイイキ  （３）,,Ｓｔ‐６,ＳＴ−６,,A,1.0,3.0,1973.0,3.0,15.0,,,,,,,,,,,,,,,,,,,,,,,,,,,,,,,,,,,,,,,,,,,,,,,,,,43.18027778,141.05027778, 43:10:49,141:03:01,0160651
395,1983,3,,130280,2,1,607,1,7,雅内海域（１）,ワツカナイカイイキ  （１）,,Ｓｔ‐６,ＳＴ−６,,C,1.0,3.0,1973.0,3.0,15.0,,,,,,,,,,,,,,,,,,,,,,,,,,,,,,,,,,,,,,,,,,,,,,01S106,,,,45.40916667,141.69333333, 45:24:33,141:41:36,0160701
396,1983,3,,130290,2,1,608,1,7,雅内海域（２）,ワツカナイカイイキ  （２）,,Ｓｔ‐４,ＳＴ−４,,B,2.0,3.0,1973.0,3.0,15.0,,,,,,,,,,,,,,,,,,,,,,,,,,,,,,,,,,,,,,,,,,,,,,01S104,,,,45.44111111,141.66277778, 45:26:28,141:39:46,0160801
397,1983,3,,130300,2,1,608,2,7,雅内海域（２）,ワツカナイカイイキ  （２）,,Ｓｔ‐５,ＳＴ−５,,B,2.0,3.0,1973.0,3.0,15.0,,,,,,,,,,,,,,,,,,,,,,,,,,,,,,,,,,,,,,,,,,,,,,01S105,,,,45.42722222,141.67388889, 45:25:38,141:40:26,0160802
398,1983,3,,130310,2,1,609,1,7,雅内海域（３）,ワツカナイカイイキ  （３）,,Ｓｔ‐１,ＳＴ−１,,A,1.0,3.0,1973.0,3.0,15.0,,,,,,,,,,,,,,,1.0,3.0,,稚内海域（３）,ワツカナイカイイキ  （３）,,,,,,,,,,,,,,,,1.0,1.0,,,,,,,,,,01S101,,,,45.42722222,141.69611111, 45:25:38,141:41:46,0160901
399,1983,3,,130320,2,1,609,2,7,雅内海域（３）,ワツカナイカイイキ  （３）,,Ｓｔ‐２,ＳＴ−２,,A,1.0,3.0,1973.0,3.0,15.0,,,,,,,,,,,,,,,1.0,3.0,,稚内海域（３）,ワツカナイカイイキ  （３）,,,,,,,,,,,,,,,,1.0,1.0,,,,,,,,,,01S102,,,,45.41055556,141.72111111, 45:24:38,141:43:16,0160902
400,1983,3,,130330,2,1,609,3,7,雅内海域（３）,ワツカナイカイイキ  （３）,,Ｓｔ‐３,ＳＴ−３,,A,1.0,3.0,1973.0,3.0,15.0,,,,,,,,,,,,,,,1.0,3.0,,稚内海域（３）,ワツカナイカイイキ  （３）,,,,,,,,,,,,,,,,1.0,1.0,,,,,,,,,,01S103,,,,45.41055556,141.76277778, 45:24:38,141:45:46,0160903
401,1983,3,,130340,2,1,609,51,8,雅内海域（３）,ワツカナイカイイキ  （３）,,Ｓｔ‐７,ＳＴ−７,,A,1.0,3.0,1973.0,3.0,15.0,,,,,,,,,,,,,,,,,,,,,,,,,,,,,,,,,,,,,,,,,,,,,,,,,,45.39916667,141.71555556, 45:23:57,141:42:56,0160951
402,1983,3,,130350,2,1,609,52,8,雅内海域（３）,ワツカナイカイイキ  （３）,,Ｓｔ‐８,ＳＴ−８,,A,1.0,3.0,1973.0,3.0,15.0,,,,,,,,,,,,,,,,,,,,,,,,,,,,,,,,,,,,,,,,,,,,,,,,,,45.40944444,141.75777778, 45:24:34,141:45:28,0160952
403,1983,3,,130360,2,1,610,1,7,紋別海域（１）,モンヘ゛ツカイイキ  （１）,,Ｓｔ‐１０,ＳＴ−１０,,C,1.0,3.0,1973.0,3.0,15.0,,,,,,,,,,,,,,,,,,,,,,,,,,,,,,,,,,,,,,,,,,,,,,01S160,,,,44.34972222,143.36277778, 44:20:59,143:21:46,0161001
404,1983,3,,130370,2,1,611,1,7,紋別海域（２）,モンヘ゛ツカイイキ  （２）,,Ｓｔ‐７,ＳＴ−７,,B,2.0,3.0,1973.0,3.0,15.0,,,,,,,,,,,,,,,,,,,,,,,,,,,,,,,,,,,,,,,,,,,,,,01S157,,,,44.33027778,143.38222222, 44:19:49,143:22:56,0161101
405,1983,3,,130380,2,1,611,2,7,紋別海域（２）,モンヘ゛ツカイイキ  （２）,,Ｓｔ‐８,ＳＴ−８,,B,2.0,3.0,1973.0,3.0,15.0,,,,,,,,,,,,,,,1.0,3.0,,紋別海域（２）,モンヘ゛ツカイイキ  （２）,,,,,,,,,,,,,,,,1.0,1.0,,,,,,,,,,01S158,,,,44.33027778,143.39333333, 44:19:49,143:23:36,0161102
406,1983,3,,130390,2,1,611,3,7,紋別海域（２）,モンヘ゛ツカイイキ  （２）,,Ｓｔ‐９,ＳＴ−９,,B,2.0,3.0,1973.0,3.0,15.0,,,,,,,,,,,,,,,,,,,,,,,,,,,,,,,,,,,,,,,,,,,,,,01S159,,,,44.32472222,143.39611111, 44:19:29,143:23:46,0161103
407,1983,3,,130400,2,1,611,51,8,紋別海域（２）,モンヘ゛ツカイイキ  （２）,,Ｓｔ‐１１,ＳＴ−１１,,B,2.0,3.0,1973.0,3.0,15.0,,,,,,,,,,,,,,,1.0,3.0,,紋別海域（２）,モンヘ゛ツカイイキ  （２）,,,,,,,,,,,,,,,,1.0,1.0,,,,,,,,,,,,,,44.32472222,143.38861111, 44:19:29,143:23:19,0161151
408,1983,3,,130410,2,1,612,1,7,紋別海域（３）,モンヘ゛ツカイイキ  （３）,,Ｓｔ‐４,ＳＴ−４,,B,1.0,3.0,1973.0,3.0,15.0,,,,,,,,,,,,,,,,,,,,,,,,,,,,,,,,,,,,,,,,,,,,,,01S154,,,,44.33722222,143.37944444, 44:20:14,143:22:46,0161201
409,1983,3,,130420,2,1,612,2,7,紋別海域（３）,モンヘ゛ツカイイキ  （３）,,Ｓｔ‐５,ＳＴ−５,,B,1.0,3.0,1973.0,3.0,15.0,,,,,,,,,,,,,,,1.0,3.0,,,モンヘ゛ツカイイキ  （３）,,,,,,,,,,,,,,,,1.0,1.0,,,,,,,,,,01S155,,,,44.33444444,143.39888889, 44:20:04,143:23:56,0161202
410,1983,3,,130430,2,1,612,3,7,紋別海域（３）,モンヘ゛ツカイイキ  （３）,,Ｓｔ‐６,ＳＴ−６,,B,1.0,3.0,1973.0,3.0,15.0,,,,,,,,,,,,,,,,,,,,,,,,,,,,,,,,,,,,,,,,,,,,,,01S156,,,,44.32472222,143.40444444, 44:19:29,143:24:16,0161203
411,1983,3,,130440,2,1,613,1,7,紋別海域（４）,モンヘ゛ツカイイキ  （４）,,Ｓｔ‐１,ＳＴ−１,,A,1.0,3.0,1973.0,3.0,15.0,,,,,,,,,,,,,,,1.0,3.0,,紋別海域（４）,モンヘ゛ツカイイキ  （４）,,,,,,,,,,,,,,,,1.0,1.0,,,,,,,,,,01S151,,,,44.36777778,143.36000000, 44:22:04,143:21:36,0161301
412,1983,3,,130450,2,1,613,2,7,紋別海域（４）,モンヘ゛ツカイイキ  （４）,,Ｓｔ‐２,ＳＴ−２,,A,1.0,3.0,1973.0,3.0,15.0,,,,,,,,,,,,,,,1.0,3.0,,紋別海域（４）,モンヘ゛ツカイイキ  （４）,,,,,,,,,,,,,,,,1.0,1.0,,,,,,,,,,01S152,,,,44.33861111,143.40444444, 44:20:19,143:24:16,0161302
413,1983,3,,130460,2,1,613,3,7,紋別海域（４）,モンヘ゛ツカイイキ  （４）,,Ｓｔ‐３,ＳＴ−３,,A,1.0,3.0,1973.0,3.0,15.0,,,,,,,,,,,,,,,,,,,,,,,,,,,,,,,,,,,,,,,,,,,,,,01S153,,,,44.32472222,143.41138889, 44:19:29,143:24:41,0161303
414,1983,3,,130470,2,1,614,1,7,網走海域（１）,アハ゛シリカイイキ  （１）,,Ｓｔ‐７,ＳＴ−７,,B,2.0,3.0,1973.0,3.0,15.0,,,,,,,,,,,,,,,,,,,,,,,,,,,,,,,,,,,,,,,,,,,,,,01S207,,,,44.02472222,144.28611111, 44:01:29,144:17:10,0161401
415,1983,3,,130480,2,1,615,1,7,網走海域（２）,アハ゛シリカイイキ  （２）,,Ｓｔ‐５,ＳＴ−５,,B,2.0,3.0,1973.0,3.0,15.0,,,,,,,,,,,,,,,,,,,,,,,,,,,,,,,,,,,,,,,,,,,,,,01S205,,,,44.03027778,144.26833333, 44:01:49,144:16:06,0161501
416,1983,3,,130490,2,1,615,2,7,網走海域（２）,アハ゛シリカイイキ  （２）,,Ｓｔ‐６,ＳＴ−６,,B,2.0,3.0,1973.0,3.0,15.0,,,,,,,,,,,,,,,,,,,,,,,,,,,,,,,,,,,,,,,,,,,,,,01S206,,,,44.02750000,144.27666667, 44:01:39,144:16:36,0161502
417,1983,3,,130500,2,1,616,1,7,網走海域（３）,アハ゛シリカイイキ  （３）,,Ｓｔ‐４,ＳＴ−４,,A,2.0,3.0,1973.0,3.0,15.0,,,,,,,,,,,,,,,,,,,,,,,,,,,,,,,,,,,,,,,,,,,,,,01S204,,,,44.03861111,144.26555556, 44:02:19,144:15:56,0161601
418,1983,3,,130510,2,1,617,1,7,網走海域（４）,アハ゛シリカイイキ  （４）,,Ｓｔ‐３,ＳＴ−３,,A,2.0,3.0,1973.0,3.0,15.0,,,,,,,,,,,,,,,,,,,,,,,,,,,,,,,,,,,,,,,,,,,,,,01S203,,,,44.01222222,144.29055556, 44:00:44,144:17:26,0161701
419,1983,3,,130520,2,1,618,1,7,網走海域（５）,アハ゛シリカイイキ  （５）,,Ｓｔ‐１,ＳＴ−１,,A,1.0,3.0,1973.0,3.0,15.0,,,,,,,,,,,,,,,,,,,,,,,,,,,,,,,,,,,,,,,,,,,,,,01S201,,,,44.04000000,144.27805556, 44:02:24,144:16:41,0161801
420,1983,3,,130530,2,1,618,2,7,網走海域（５）,アハ゛シリカイイキ  （５）,,Ｓｔ‐２,ＳＴ−２,,A,1.0,3.0,1973.0,3.0,15.0,,,,,,,,,,,,,,,,,,,,,,,,,,,,,,,,,,,,,,,,,,,,,,01S202,,,,44.01777778,144.29888889, 44:01:04,144:17:56,0161802
421,1983,3,,130540,2,1,619,1,7,根室海域（１）,ネムロカイイキ  （１）,,Ｓｔ‐４,ＳＴ−４,,C,1.0,3.0,1973.0,3.0,15.0,,,,,,,,,,,,,,,1.0,3.0,,根室海域（１）,ネムロカイイキ  （１）,,,,,,,,,,,,,,,,1.0,1.0,,,,,,,,,,01S304,,,,43.33722222,145.57361111, 43:20:14,145:34:25,0161901
422,1983,3,,130550,2,1,619,2,7,根室海域（１）,ネムロカイイキ  （１）,,Ｓｔ‐５,ＳＴ−５,,C,1.0,3.0,1973.0,3.0,15.0,,,,,,,,,,,,,,,1.0,3.0,,根室海域（１）,ネムロカイイキ  （１）,,,,,,,,,,,,,,,,1.0,1.0,,,,,,,,,,01S305,,,,43.34277778,145.58055556, 43:20:34,145:34:50,0161902
423,1983,3,,130560,2,1,620,1,7,根室海域（２）,ネムロカイイキ  （２）,,Ｓｔ‐１,ＳＴ−１,,A,1.0,3.0,1973.0,3.0,15.0,,,,,,,,,,,,,,,1.0,3.0,,根室海域（２）,ネムロカイイキ  （２）,,,,,,,,,,,,,,,,1.0,1.0,,,,,,,,,,01S301,,,,43.33305556,145.56527778, 43:19:59,145:33:55,0162001
424,1983,3,,130570,2,1,620,2,7,根室海域（２）,ネムロカイイキ  （２）,,Ｓｔ‐２,ＳＴ−２,,A,1.0,3.0,1973.0,3.0,15.0,,,,,,,,,,,,,,,1.0,3.0,,根室海域（２）,ネムロカイイキ  （２）,,,,,,,,,,,,,,,,1.0,1.0,,,,,,,,,,01S302,,,,43.34416667,145.57222222, 43:20:39,145:34:20,0162002
425,1983,3,,130580,2,1,620,3,7,根室海域（２）,ネムロカイイキ  （２）,,Ｓｔ‐３,ＳＴ−３,,A,1.0,3.0,1973.0,3.0,15.0,,,,,,,,,,,,,,,1.0,3.0,,根室海域（２）,ネムロカイイキ  （２）,,,,,,,,,,,,,,,,1.0,1.0,,,,,,,,,,01S303,,,,43.35250000,145.58750000, 43:21:09,145:35:15,0162003
426,1983,3,,130590,2,1,620,51,8,根室海域（２）,ネムロカイイキ  （２）,,Ｓｔ‐１０,ＳＴ−１０,,A,1.0,3.0,1973.0,3.0,15.0,,,,,,,,,,,,,,,1.0,3.0,,根室海域（２）,ネムロカイイキ  （２）,,,,,,,,,,,,,,,,1.0,1.0,,,,,,,,,,,,,,43.32861111,145.56416667, 43:19:43,145:33:51,0162051
427,1983,3,,130600,2,1,621,1,7,根室海域（３）,ネムロカイイキ  （３）,,Ｓｔ‐８,ＳＴ−８,,C,1.0,3.0,1973.0,3.0,15.0,,,,,,,,,,,,,,,1.0,3.0,,根室海域（３）,ネムロカイイキ  （３）,,,,,,,,,,,,,,,,1.0,1.0,,,,,,,,,,01S308,,,,43.28305556,145.57638889, 43:16:59,145:34:35,0162101
428,1983,3,,130610,2,1,621,2,7,根室海域（３）,ネムロカイイキ  （３）,,Ｓｔ‐９,ＳＴ−９,,C,1.0,3.0,1973.0,3.0,15.0,,,,,,,,,,,,,,,1.0,3.0,,根室海域（３）,ネムロカイイキ  （３）,,,,,,,,,,,,,,,,1.0,1.0,,,,,,,,,,01S30,,,,43.28305556,145.58055556, 43:16:59,145:34:50,0162102
429,1983,3,,130620,2,1,622,1,7,根室海域（４）,ネムロカイイキ  （４）,,Ｓｔ‐６,ＳＴ−６,,A,1.0,3.0,1973.0,3.0,15.0,,,,,,,,,,,,,,,1.0,3.0,,根室海域（４）,ネムロカイイキ  （４）,,,,,,,,,,,,,,,,1.0,1.0,,,,,,,,,,01S306,,,,43.27888889,145.57083333, 43:16:44,145:34:15,0162201
430,1983,3,,130630,2,1,622,2,7,根室海域（４）,ネムロカイイキ  （４）,,Ｓｔ‐７,ＳＴ−７,,A,1.0,3.0,1973.0,3.0,15.0,,,,,,,,,,,,,,,1.0,3.0,,根室海域（４）,ネムロカイイキ  （４）,,,,,,,,,,,,,,,,1.0,1.0,,,,,,,,,,01S307,,,,43.27888889,145.58194444, 43:16:44,145:34:55,0162202
431,1983,3,,130640,2,1,623,1,7,釧路海域（１）,クシロカイイキ  （１）,,Ｓｔ‐１１,ＳＴ−１１,,C,1.0,3.0,1973.0,3.0,15.0,,,,,,,,,,,,,,,1.0,3.0,,釧路海域（１）,クシロカイイキ  （１）,,,,,,,,,,,,,,,,1.0,1.0,,,,,,,,,,01S411,,,,42.97888889,144.36555556, 42:58:44,144:21:56,0162301
432,1983,3,,130650,2,1,624,1,7,釧路海域（２）,クシロカイイキ  （２）,,Ｓｔ‐１０,ＳＴ−１０,,C,1.0,3.0,1973.0,3.0,15.0,,,,,,,,,,,,,,,,,,,,,,,,,,,,,,,,,,,,,,,,,,,,,,01S410,,,,42.99416667,144.33638889, 42:59:39,144:20:11,0162401
433,1983,3,,130660,2,1,625,1,7,釧路海域（３）,クシロカイイキ  （３）,,Ｓｔ‐７,ＳＴ−７,,B,2.0,3.0,1973.0,3.0,15.0,,,,,,,,,,,,,,,,,,,,,,,,,,,,,,,,,,,,,,,,,,,,,,01S407,,,,42.98305556,144.31277778, 42:58:59,144:18:46,0162501
434,1983,3,,130670,2,1,625,2,7,釧路海域（３）,クシロカイイキ  （３）,,Ｓｔ‐８,ＳＴ−８,,B,2.0,3.0,1973.0,3.0,15.0,,,,,,,,,,,,,,,1.0,3.0,,釧路海域（３）,クシロカイイキ  （３）,,,,,,,,,,,,,,,,1.0,1.0,,,,,,,,,,01S408,,,,42.98583333,144.29055556, 42:59:09,144:17:26,0162502
435,1983,3,,130680,2,1,625,3,7,釧路海域（３）,クシロカイイキ  （３）,,Ｓｔ‐９,ＳＴ−９,,B,2.0,3.0,1973.0,3.0,15.0,,,,,,,,,,,,,,,,,,,,,,,,,,,,,,,,,,,,,,,,,,,,,,01S409,,,,42.99416667,144.27944444, 42:59:39,144:16:46,0162503
436,1983,3,,130690,2,1,626,1,7,釧路海域（４）,クシロカイイキ  （４）,,Ｓｔ‐４,ＳＴ−４,,B,1.0,3.0,1973.0,3.0,15.0,,,,,,,,,,,,,,,,,,,,,,,,,,,,,,,,,,,,,,,,,,,,,,01S404,,,,42.97611111,144.31277778, 42:58:34,144:18:46,0162601
437,1983,3,,130700,2,1,626,2,7,釧路海域（４）,クシロカイイキ  （４）,,Ｓｔ‐５,ＳＴ−５,,B,1.0,3.0,1973.0,3.0,15.0,,,,,,,,,,,,,,,,,,,,,,,,,,,,,,,,,,,,,,,,,,,,,,01S405,,,,42.97611111,144.27944444, 42:58:34,144:16:46,0162602
438,1983,3,,130710,2,1,626,3,7,釧路海域（４）,クシロカイイキ  （４）,,Ｓｔ‐６,ＳＴ−６,,B,1.0,3.0,1973.0,3.0,15.0,,,,,,,,,,,,,,,,,,,,,,,,,,,,,,,,,,,,,,,,,,,,,,01S406,,,,42.99138889,144.26972222, 42:59:29,144:16:11,0162603
439,1983,3,,130720,2,1,627,1,7,釧路海域（５）,クシロカイイキ  （５）,,Ｓｔ‐３,ＳＴ−３,,A,2.0,3.0,1973.0,3.0,15.0,,,,,,,,,,,,,,,1.0,3.0,,釧路海域（５）,クシロカイイキ  （５）,,,,,,,,,,,,,,,,1.0,1.0,,,,,,,,,,01S403,,,,42.98305556,144.35166667, 42:58:59,144:21:06,0162701
440,1983,3,,130730,2,1,628,1,7,釧路海域（６）,クシロカイイキ  （６）,,Ｓｔ‐１,ＳＴ−１,,A,1.0,3.0,1973.0,3.0,15.0,,,,,,,,,,,,,,,1.0,3.0,,釧路海域（６）,クシロカイイキ  （６）,,,,,,,,,,,,,,,,1.0,1.0,,,,,,,,,,01S401,,,,42.97194444,144.31277778, 42:58:19,144:18:46,0162801
441,1983,3,,130740,2,1,628,2,7,釧路海域（６）,クシロカイイキ  （６）,,Ｓｔ‐２,ＳＴ−２,,A,1.0,3.0,1973.0,3.0,15.0,,,,,,,,,,,,,,,1.0,3.0,,釧路海域（６）,クシロカイイキ  （６）,,,,,,,,,,,,,,,,1.0,1.0,,,,,,,,,,01S402,,,,42.98583333,144.24611111, 42:59:09,144:14:46,0162802
442,1983,3,,130750,2,1,629,1,7,苫小牧海域（１）,トマコマイカイイキ（１）,,Ｓｔ‐２９,ＳＴ−２９,,C,1.0,3.0,1973.0,3.0,15.0,,,,,,,,,,,,,,,,,,,,,,,,,,,,,,,,,,,,,,,,,,,,,,01S501,,,,42.64555556,141.66861111, 42:38:44,141:40:07,0162901
443,1983,3,,130760,2,1,629,2,7,苫小牧海域（１）,トマコマイカイイキ（１）,,Ｓｔ‐３０,ＳＴ−３０,,C,1.0,3.0,1973.0,3.0,15.0,,,,,,,,,,,,,,,1.0,3.0,,苫小牧海域（１）,トマコマイカイイキ（１）,,,,,,,,,,,,,,,,1.0,1.0,,,,,,,,,,01S502,,,,42.63861111,141.64500000, 42:38:19,141:38:42,0162902
444,1983,3,,130770,2,1,629,3,7,苫小牧海域（１）,トマコマイカイイキ（１）,,Ｓｔ‐３１,ＳＴ−３１,,C,1.0,3.0,1973.0,3.0,15.0,,,,,,,,,,,,,,,,,,,,,,,,,,,,,,,,,,,,,,,,,,,,,,01S503,,,,42.62611111,141.62416667, 42:37:34,141:37:27,0162903
445,1983,3,,130780,2,1,630,1,7,白老海域（１）,シラオイカイイキ  （１）,,Ｓｔ‐７,ＳＴ−７,,B,2.0,3.0,1973.0,3.0,15.0,,,,,,,,,,,,,,,,,,,,,,,,,,,,,,,,,,,,,,,,,,,,,,01S607,,,,42.51222222,141.30750000, 42:30:44,141:18:27,0163001
446,1983,3,,130790,2,1,630,2,7,白老海域（１）,シラオイカイイキ  （１）,,Ｓｔ‐８,ＳＴ−８,,B,2.0,3.0,1973.0,3.0,15.0,,,,,,,,,,,,,,,1.0,3.0,,白老海域（１）,シラオイカイイキ  （１）,,,,,,,,,,,,,,,,1.0,1.0,,,,,,,,,,01S608,,,,42.50250000,141.30472222, 42:30:09,141:18:17,0163002
447,1983,3,,130800,2,1,630,3,7,白老海域（１）,シラオイカイイキ  （１）,,Ｓｔ‐９,ＳＴ−９,,B,2.0,3.0,1973.0,3.0,15.0,,,,,,,,,,,,,,,1.0,3.0,,白老海域（１）,シラオイカイイキ  （１）,,,,,,,,,,,,,,,,1.0,1.0,,,,,,,,,,01S609,,,,42.49972222,141.28944444, 42:29:59,141:17:22,0163003
448,1983,3,,130810,2,1,631,1,7,白老海域（２）,シラオイカイイキ  （２）,,Ｓｔ‐４,ＳＴ−４,,B,1.0,3.0,1973.0,3.0,15.0,,,,,,,,,,,,,,,,,,,,,,,,,,,,,,,,,,,,,,,,,,,,,,01S604,,,,42.51361111,141.31583333, 42:30:49,141:18:57,0163101
449,1983,3,,130820,2,1,631,2,7,白老海域（２）,シラオイカイイキ  （２）,,Ｓｔ‐５,ＳＴ−５,,B,1.0,3.0,1973.0,3.0,15.0,,,,,,,,,,,,,,,1.0,3.0,,白老海域（２）,シラオイカイイキ  （２）,,,,,,,,,,,,,,,,1.0,1.0,,,,,,,,,,01S605,,,,42.49833333,141.30888889, 42:29:54,141:18:32,0163102
450,1983,3,,130830,2,1,631,3,7,白老海域（２）,シラオイカイイキ  （２）,,Ｓｔ‐６,ＳＴ−６,,B,1.0,3.0,1973.0,3.0,15.0,,,,,,,,,,,,,,,,,,,,,,,,,,,,,,,,,,,,,,,,,,,,,,01S606,,,,42.49555556,141.28666667, 42:29:44,141:17:12,0163103
451,1983,3,,130840,2,1,632,1,7,白老海域（３）,シラオイカイイキ  （３）,,Ｓｔ‐１,ＳＴ−１,,A,1.0,3.0,1973.0,3.0,15.0,,,,,,,,,,,,,,,1.0,3.0,,白老海域（３）,シラオイカイイキ  （３）,,,,,,,,,,,,,,,,1.0,1.0,,,,,,,,,,01S601,,,,42.51638889,141.32972222, 42:30:59,141:19:47,0163201
452,1983,3,,130850,2,1,632,2,7,白老海域（３）,シラオイカイイキ  （３）,,Ｓｔ‐２,ＳＴ−２,,A,1.0,3.0,1973.0,3.0,15.0,,,,,,,,,,,,,,,1.0,3.0,,白老海域（３）,シラオイカイイキ  （３）,,,,,,,,,,,,,,,,1.0,1.0,,,,,,,,,,01S602,,,,42.49416667,141.31305556, 42:29:39,141:18:47,0163202
453,1983,3,,130860,2,1,632,3,7,白老海域（３）,シラオイカイイキ  （３）,,Ｓｔ‐３,ＳＴ−３,,A,1.0,3.0,1973.0,3.0,15.0,,,,,,,,,,,,,,,1.0,3.0,,白老海域（３）,シラオイカイイキ  （３）,,,,,,,,,,,,,,,,1.0,1.0,,,,,,,,,,01S603,,,,42.48583333,141.27972222, 42:29:09,141:16:47,0163203
454,1983,3,,130870,2,1,633,1,7,室蘭海域（１）,ムロランカイイキ  （１）,,Ｓｔ‐３,ＳＴ−３,,C,1.0,3.0,1973.0,3.0,15.0,,,,,,,,,,,,,,,1.0,3.0,,室蘭海域（１）,ムロランカイイキ  （１）,,,,,,,,,,,,,,,,1.0,1.0,,,,,,,,,,01S703,,,,42.35527778,140.93527778, 42:21:19,140:56:07,0163301
455,1983,3,,130880,2,1,633,2,7,室蘭海域（１）,ムロランカイイキ  （１）,,Ｓｔ‐４,ＳＴ−４,,C,1.0,3.0,1973.0,3.0,15.0,,,,,,,,,,,,,,,1.0,3.0,,室蘭海域（１）,ムロランカイイキ  （１）,,,,,,,,,,,,,,,,1.0,1.0,,,,,,,,,,01S704,,,,42.34972222,140.96861111, 42:20:59,140:58:07,0163302
456,1983,3,,130890,2,1,633,51,8,室蘭海域（１）,ムロランカイイキ  （１）,,Ｓｔ‐７,ＳＴ−７,,C,1.0,3.0,1973.0,3.0,15.0,,,,,,,,,,,,,,,1.0,3.0,,室蘭海域（１）,ムロランカイイキ  （１）,,,,,,,,,,,,,,,,1.0,1.0,,,,,,,,,,,,,,42.36194444,140.94194444, 42:21:43,140:56:31,0163351
457,1983,3,,130900,2,1,633,52,8,室蘭海域（１）,ムロランカイイキ  （１）,,Ｓｔ‐８,ＳＴ−８,,C,1.0,3.0,1973.0,3.0,15.0,,,,,,,,,,,,,,,1.0,3.0,,室蘭海域（１）,ムロランカイイキ  （１）,,,,,,,,,,,,,,,,1.0,1.0,,,,,,,,,,,,,,42.35444444,140.98027778, 42:21:16,140:58:49,0163352
458,1983,3,,130910,2,1,633,53,8,室蘭海域（１）,ムロランカイイキ  （１）,,Ｓｔ‐９,ＳＴ−９,,C,1.0,3.0,1973.0,3.0,15.0,,,,,,,,,,,,,,,1.0,3.0,,室蘭海域（１）,ムロランカイイキ  （１）,,,,,,,,,,,,,,,,1.0,1.0,,,,,,,,,,,,,,42.49611111,140.97250000, 42:29:46,140:58:21,0163353
459,1983,3,,130920,2,1,634,1,7,室蘭海域（２）,ムロランカイイキ  （２）,,Ｓｔ‐１,ＳＴ−１,,A,1.0,3.0,1973.0,3.0,15.0,,,,,,,,,,,,,,,1.0,3.0,,室蘭海域（２）,ムロランカイイキ  （２）,,,,,,,,,,,,,,,,1.0,1.0,,,,,,,,,,01S701,,,,42.35527778,140.91027778, 42:21:19,140:54:37,0163401
460,1983,3,,130930,2,1,634,2,7,室蘭海域（２）,ムロランカイイキ  （２）,,Ｓｔ‐２,ＳＴ−２,,A,1.0,3.0,1973.0,3.0,15.0,,,,,,,,,,,,,,,1.0,3.0,,室蘭海域（２）,ムロランカイイキ  （２）,,,,,,,,,,,,,,,,1.0,1.0,,,,,,,,,,01S702,,,,42.34277778,140.92277778, 42:20:34,140:55:22,0163402
461,1983,3,,130940,2,1,635,1,7,室蘭海域（３）,ムロランカイイキ  （３）,,Ｓｔ‐６,ＳＴ−６,,A,2.0,3.0,1973.0,3.0,15.0,,,,,,,,,,,,,,,1.0,3.0,,室蘭海域（３）,ムロランカイイキ  （３）,,,,,,,,,,,,,,,,1.0,1.0,,,,,,,,,,01S706,,,,42.34138889,141.03527778, 42:20:29,141:02:07,0163501
462,1983,3,,130950,2,1,636,1,7,室蘭海域（４）,ムロランカイイキ  （４）,,Ｓｔ‐５,ＳＴ−５,,A,1.0,3.0,1973.0,3.0,15.0,,,,,,,,,,,,,,,1.0,3.0,,室蘭海域（４）,ムロランカイイキ  （４）,,,,,,,,,,,,,,,,1.0,1.0,,,,,,,,,,01S705,,,,42.34694444,141.04638889, 42:20:49,141:02:47,0163601
463,1983,3,,130960,2,1,637,1,7,伊達海域（１）,タ゛テカイイキ  （１）,,Ｓｔ‐７,ＳＴ−７,,B,2.0,3.0,1973.0,3.0,15.0,,,,,,,,,,,,,,,,,,,,,,,,,,,,,,,,,,,,,,,,,,,,,,01S757,,,,42.46777778,140.84638889, 42:28:04,140:50:47,0163701
464,1983,3,,130970,2,1,637,2,7,伊達海域（１）,タ゛テカイイキ  （１）,,Ｓｔ‐８,ＳＴ−８,,B,2.0,3.0,1973.0,3.0,15.0,,,,,,,,,,,,,,,1.0,3.0,,伊達海域（１）,タ゛テカイイキ  （１）,,,,,,,,,,,,,,,,1.0,1.0,,,,,,,,,,01S758,,,,42.46638889,140.84361111, 42:27:59,140:50:37,0163702
465,1983,3,,130980,2,1,637,3,7,伊達海域（１）,タ゛テカイイキ  （１）,,Ｓｔ‐９,ＳＴ−９,,B,2.0,3.0,1973.0,3.0,15.0,,,,,,,,,,,,,,,,,,,,,,,,,,,,,,,,,,,,,,,,,,,,,,01S759,,,,42.46777778,140.83944444, 42:28:04,140:50:22,0163703
